{
"type": "FeatureCollection",
"name": "2m_temp_places",
"crs": { "type": "name", "properties": { "name": "urn:ogc:def:crs:OGC:1.3:CRS84" } },
"features": [
{ "type": "Feature", "properties": { "name": "Medenine", "ne_id":  "1159112749" }, "geometry": { "type": "Point", "coordinates": [ 10.416699557596701, 33.399999002467325 ] } },
{ "type": "Feature", "properties": { "name": "Kebili", "ne_id":  "1159112765" }, "geometry": { "type": "Point", "coordinates": [ 8.9710025379012, 33.689997034920566 ] } },
{ "type": "Feature", "properties": { "name": "Tataouine", "ne_id":  "1159112779" }, "geometry": { "type": "Point", "coordinates": [ 10.466703589415545, 33.000003154320837 ] } },
{ "type": "Feature", "properties": { "name": "L'Ariana", "ne_id":  "1159112795" }, "geometry": { "type": "Point", "coordinates": [ 10.199997547479256, 36.866673153444935 ] } },
{ "type": "Feature", "properties": { "name": "Jendouba", "ne_id":  "1159112811" }, "geometry": { "type": "Point", "coordinates": [ 8.749998614579113, 36.500004059426146 ] } },
{ "type": "Feature", "properties": { "name": "Kasserine", "ne_id":  "1159112827" }, "geometry": { "type": "Point", "coordinates": [ 8.716698503320458, 35.216703104824205 ] } },
{ "type": "Feature", "properties": { "name": "Sdid Bouzid", "ne_id":  "1159112843" }, "geometry": { "type": "Point", "coordinates": [ 9.500004482255633, 35.01669607914971 ] } },
{ "type": "Feature", "properties": { "name": "Siliana", "ne_id":  "1159112859" }, "geometry": { "type": "Point", "coordinates": [ 9.383301599658637, 36.083304125235486 ] } },
{ "type": "Feature", "properties": { "name": "Mahdia", "ne_id":  "1159112873" }, "geometry": { "type": "Point", "coordinates": [ 11.040876615321963, 35.483913044502685 ] } },
{ "type": "Feature", "properties": { "name": "Monastir", "ne_id":  "1159112893" }, "geometry": { "type": "Point", "coordinates": [ 10.767294561862002, 35.730702135151205 ] } },
{ "type": "Feature", "properties": { "name": "Zaghouan", "ne_id":  "1159112913" }, "geometry": { "type": "Point", "coordinates": [ 10.146996606592154, 36.399996161271929 ] } },
{ "type": "Feature", "properties": { "name": "Kırklareli", "ne_id":  "1159113387" }, "geometry": { "type": "Point", "coordinates": [ 27.225999615690228, 41.742999169920381 ] } },
{ "type": "Feature", "properties": { "name": "Bilecik", "ne_id":  "1159113409" }, "geometry": { "type": "Point", "coordinates": [ 29.982996597707256, 40.149999022269185 ] } },
{ "type": "Feature", "properties": { "name": "Sakarya", "ne_id":  "1159113425" }, "geometry": { "type": "Point", "coordinates": [ 30.400002511183743, 40.766661136062623 ] } },
{ "type": "Feature", "properties": { "name": "Kastamonu", "ne_id":  "1159113441" }, "geometry": { "type": "Point", "coordinates": [ 33.783003490523583, 41.389002152589001 ] } },
{ "type": "Feature", "properties": { "name": "Burdur", "ne_id":  "1159113457" }, "geometry": { "type": "Point", "coordinates": [ 30.283335538540712, 37.716660110922817 ] } },
{ "type": "Feature", "properties": { "name": "Kırşehir", "ne_id":  "1159113471" }, "geometry": { "type": "Point", "coordinates": [ 34.171002600795873, 39.141999165379048 ] } },
{ "type": "Feature", "properties": { "name": "Nevşehir", "ne_id":  "1159113485" }, "geometry": { "type": "Point", "coordinates": [ 34.723998517349969, 38.624004035649307 ] } },
{ "type": "Feature", "properties": { "name": "Antioch", "ne_id":  "1159113499" }, "geometry": { "type": "Point", "coordinates": [ 36.116676558439394, 36.233334092927635 ] } },
{ "type": "Feature", "properties": { "name": "Giresun", "ne_id":  "1159113515" }, "geometry": { "type": "Point", "coordinates": [ 38.390004520672335, 40.913001149121726 ] } },
{ "type": "Feature", "properties": { "name": "Sinop", "ne_id":  "1159113529" }, "geometry": { "type": "Point", "coordinates": [ 35.15300149966771, 42.022998017749671 ] } },
{ "type": "Feature", "properties": { "name": "Tokat", "ne_id":  "1159113547" }, "geometry": { "type": "Point", "coordinates": [ 36.563004521490598, 40.305996165228464 ] } },
{ "type": "Feature", "properties": { "name": "Artvin", "ne_id":  "1159113561" }, "geometry": { "type": "Point", "coordinates": [ 41.8179965353429, 41.183001143294291 ] } },
{ "type": "Feature", "properties": { "name": "Bingöl", "ne_id":  "1159113575" }, "geometry": { "type": "Point", "coordinates": [ 40.498002558017561, 38.885004035532518 ] } },
{ "type": "Feature", "properties": { "name": "Bitlis", "ne_id":  "1159113589" }, "geometry": { "type": "Point", "coordinates": [ 42.122997647307102, 38.394000118037695 ] } },
{ "type": "Feature", "properties": { "name": "Çankırı", "ne_id":  "1159113633" }, "geometry": { "type": "Point", "coordinates": [ 33.621003593310206, 40.607001012306739 ] } },
{ "type": "Feature", "properties": { "name": "Niğde", "ne_id":  "1159113643" }, "geometry": { "type": "Point", "coordinates": [ 34.694001625412795, 37.976004115828232 ] } },
{ "type": "Feature", "properties": { "name": "Yozgat", "ne_id":  "1159113661" }, "geometry": { "type": "Point", "coordinates": [ 34.814997485096853, 39.817998092919765 ] } },
{ "type": "Feature", "properties": { "name": "Gümüşhane", "ne_id":  "1159113677" }, "geometry": { "type": "Point", "coordinates": [ 39.48399961590593, 40.464000128523139 ] } },
{ "type": "Feature", "properties": { "name": "Siirt", "ne_id":  "1159113695" }, "geometry": { "type": "Point", "coordinates": [ 41.932998576890498, 37.944000072588665 ] } },
{ "type": "Feature", "properties": { "name": "Tunceli", "ne_id":  "1159113711" }, "geometry": { "type": "Point", "coordinates": [ 39.533301500558991, 39.116700023559531 ] } },
{ "type": "Feature", "properties": { "name": "Veszprém", "ne_id":  "1159114055" }, "geometry": { "type": "Point", "coordinates": [ 17.910999568505588, 47.09099713733832 ] } },
{ "type": "Feature", "properties": { "name": "Zalaegerszeg", "ne_id":  "1159114075" }, "geometry": { "type": "Point", "coordinates": [ 16.839999586104341, 46.844001026631986 ] } },
{ "type": "Feature", "properties": { "name": "Tatabánya", "ne_id":  "1159114091" }, "geometry": { "type": "Point", "coordinates": [ 18.432999568271782, 47.549997177077103 ] } },
{ "type": "Feature", "properties": { "name": "Szekszárd", "ne_id":  "1159114109" }, "geometry": { "type": "Point", "coordinates": [ 18.712998581584827, 46.343997114847753 ] } },
{ "type": "Feature", "properties": { "name": "Salgótarján", "ne_id":  "1159114123" }, "geometry": { "type": "Point", "coordinates": [ 19.826001626366121, 48.105000079449951 ] } },
{ "type": "Feature", "properties": { "name": "Békéscsaba", "ne_id":  "1159114145" }, "geometry": { "type": "Point", "coordinates": [ 21.101004568360736, 46.672002110278299 ] } },
{ "type": "Feature", "properties": { "name": "Eger", "ne_id":  "1159114165" }, "geometry": { "type": "Point", "coordinates": [ 20.383002578440141, 47.895003136236369 ] } },
{ "type": "Feature", "properties": { "name": "Târgu Jiu", "ne_id":  "1159114265" }, "geometry": { "type": "Point", "coordinates": [ 23.274000615434716, 45.045000035170006 ] } },
{ "type": "Feature", "properties": { "name": "Slatina", "ne_id":  "1159114283" }, "geometry": { "type": "Point", "coordinates": [ 24.371001555854207, 44.434998142208656 ] } },
{ "type": "Feature", "properties": { "name": "Alexandria", "ne_id":  "1159114301" }, "geometry": { "type": "Point", "coordinates": [ 25.286706542462184, 43.90163106989155 ] } },
{ "type": "Feature", "properties": { "name": "Târgoviște", "ne_id":  "1159114313" }, "geometry": { "type": "Point", "coordinates": [ 25.459002501984173, 44.937999128544959 ] } },
{ "type": "Feature", "properties": { "name": "Giurgiu", "ne_id":  "1159114333" }, "geometry": { "type": "Point", "coordinates": [ 25.839999502184469, 43.92999910617101 ] } },
{ "type": "Feature", "properties": { "name": "Slobozia", "ne_id":  "1159114405" }, "geometry": { "type": "Point", "coordinates": [ 27.381996593165866, 44.569998056553118 ] } },
{ "type": "Feature", "properties": { "name": "Dar'a", "ne_id":  "1159114421" }, "geometry": { "type": "Point", "coordinates": [ 36.105003506602657, 32.625000137740756 ] } },
{ "type": "Feature", "properties": { "name": "Delémont", "ne_id":  "1159114441" }, "geometry": { "type": "Point", "coordinates": [ 7.344999487643292, 47.369997125800808 ] } },
{ "type": "Feature", "properties": { "name": "Neuchâtel", "ne_id":  "1159114457" }, "geometry": { "type": "Point", "coordinates": [ 6.922998615397546, 46.998999144740708 ] } },
{ "type": "Feature", "properties": { "name": "Aarau", "ne_id":  "1159114477" }, "geometry": { "type": "Point", "coordinates": [ 8.034003610477498, 47.390004100198894 ] } },
{ "type": "Feature", "properties": { "name": "Stans", "ne_id":  "1159114501" }, "geometry": { "type": "Point", "coordinates": [ 8.383302546723826, 46.950003073890059 ] } },
{ "type": "Feature", "properties": { "name": "Sion", "ne_id":  "1159114521" }, "geometry": { "type": "Point", "coordinates": [ 7.353999481933045, 46.239003028557875 ] } },
{ "type": "Feature", "properties": { "name": "Herisau", "ne_id":  "1159114539" }, "geometry": { "type": "Point", "coordinates": [ 9.283302472138416, 47.383299033295089 ] } },
{ "type": "Feature", "properties": { "name": "Saint Gallen", "ne_id":  "1159114557" }, "geometry": { "type": "Point", "coordinates": [ 9.361998557241634, 47.422998066687967 ] } },
{ "type": "Feature", "properties": { "name": "Bellinzona", "ne_id":  "1159114577" }, "geometry": { "type": "Point", "coordinates": [ 9.019998608751848, 46.197000131661639 ] } },
{ "type": "Feature", "properties": { "name": "Glarus", "ne_id":  "1159114593" }, "geometry": { "type": "Point", "coordinates": [ 9.066699586732966, 47.050002035926695 ] } },
{ "type": "Feature", "properties": { "name": "Schaffhausen", "ne_id":  "1159114605" }, "geometry": { "type": "Point", "coordinates": [ 8.632998523330116, 47.706003090670379 ] } },
{ "type": "Feature", "properties": { "name": "Schwyz", "ne_id":  "1159114627" }, "geometry": { "type": "Point", "coordinates": [ 8.648001602841134, 47.0199960423883 ] } },
{ "type": "Feature", "properties": { "name": "Frauenfeld", "ne_id":  "1159114649" }, "geometry": { "type": "Point", "coordinates": [ 9.108000501947004, 47.567997165656379 ] } },
{ "type": "Feature", "properties": { "name": "Altdorf", "ne_id":  "1159114659" }, "geometry": { "type": "Point", "coordinates": [ 8.638002583700825, 46.879002144423623 ] } },
{ "type": "Feature", "properties": { "name": "Zug", "ne_id":  "1159114687" }, "geometry": { "type": "Point", "coordinates": [ 8.487000564994787, 47.178999030533475 ] } },
{ "type": "Feature", "properties": { "name": "Falun", "ne_id":  "1159114705" }, "geometry": { "type": "Point", "coordinates": [ 15.647004553684724, 60.613002035557997 ] } },
{ "type": "Feature", "properties": { "name": "Nyköping", "ne_id":  "1159114723" }, "geometry": { "type": "Point", "coordinates": [ 17.015004513127508, 58.763997177760473 ] } },
{ "type": "Feature", "properties": { "name": "Härnösand", "ne_id":  "1159114733" }, "geometry": { "type": "Point", "coordinates": [ 17.934003617455744, 62.633997039075155 ] } },
{ "type": "Feature", "properties": { "name": "Karlskrona", "ne_id":  "1159114749" }, "geometry": { "type": "Point", "coordinates": [ 15.296004610905186, 56.203002185897958 ] } },
{ "type": "Feature", "properties": { "name": "Alba Lulia", "ne_id":  "1159114767" }, "geometry": { "type": "Point", "coordinates": [ 23.580000586766062, 46.077003131344384 ] } },
{ "type": "Feature", "properties": { "name": "Bistrița", "ne_id":  "1159114783" }, "geometry": { "type": "Point", "coordinates": [ 24.51300358027089, 47.138004094605435 ] } },
{ "type": "Feature", "properties": { "name": "Deva", "ne_id":  "1159114801" }, "geometry": { "type": "Point", "coordinates": [ 22.916673570429055, 45.883323042412371 ] } },
{ "type": "Feature", "properties": { "name": "Zalău", "ne_id":  "1159114819" }, "geometry": { "type": "Point", "coordinates": [ 23.063004481886935, 47.17500309661466 ] } },
{ "type": "Feature", "properties": { "name": "Satu Mare", "ne_id":  "1159114839" }, "geometry": { "type": "Point", "coordinates": [ 22.885002480311812, 47.791998163530366 ] } },
{ "type": "Feature", "properties": { "name": "Rimnicu Vilcea", "ne_id":  "1159114857" }, "geometry": { "type": "Point", "coordinates": [ 24.382998624695688, 45.109998044898646 ] } },
{ "type": "Feature", "properties": { "name": "Sfintu-Gheorghe", "ne_id":  "1159114867" }, "geometry": { "type": "Point", "coordinates": [ 25.793001481034935, 45.867996111380307 ] } },
{ "type": "Feature", "properties": { "name": "Miercurea Cuic", "ne_id":  "1159114889" }, "geometry": { "type": "Point", "coordinates": [ 25.524000511712984, 46.360998078576301 ] } },
{ "type": "Feature", "properties": { "name": "Piatra-Neamt", "ne_id":  "1159114907" }, "geometry": { "type": "Point", "coordinates": [ 26.382996565081839, 46.94000405474975 ] } },
{ "type": "Feature", "properties": { "name": "Brăila", "ne_id":  "1159114919" }, "geometry": { "type": "Point", "coordinates": [ 27.969003538778509, 45.291996145876226 ] } },
{ "type": "Feature", "properties": { "name": "Vaslui", "ne_id":  "1159114937" }, "geometry": { "type": "Point", "coordinates": [ 27.73333859066895, 46.633329075572703 ] } },
{ "type": "Feature", "properties": { "name": "Aveiro", "ne_id":  "1159115621" }, "geometry": { "type": "Point", "coordinates": [ -8.650997534094358, 40.641003105247648 ] } },
{ "type": "Feature", "properties": { "name": "Leiria", "ne_id":  "1159115639" }, "geometry": { "type": "Point", "coordinates": [ -8.804996461868768, 39.738996028530494 ] } },
{ "type": "Feature", "properties": { "name": "Viana Do Castelo", "ne_id":  "1159115665" }, "geometry": { "type": "Point", "coordinates": [ -8.844137484362761, 41.696235142665046 ] } },
{ "type": "Feature", "properties": { "name": "Mérida", "ne_id":  "1159115685" }, "geometry": { "type": "Point", "coordinates": [ -6.337997512305094, 38.912004018401376 ] } },
{ "type": "Feature", "properties": { "name": "Beja", "ne_id":  "1159115703" }, "geometry": { "type": "Point", "coordinates": [ -7.863002410191882, 38.014002142688014 ] } },
{ "type": "Feature", "properties": { "name": "Évora", "ne_id":  "1159115725" }, "geometry": { "type": "Point", "coordinates": [ -7.905995561304906, 38.5599961146537 ] } },
{ "type": "Feature", "properties": { "name": "Portalegre", "ne_id":  "1159115745" }, "geometry": { "type": "Point", "coordinates": [ -7.423001549366745, 39.290004109533356 ] } },
{ "type": "Feature", "properties": { "name": "Santarém", "ne_id":  "1159115765" }, "geometry": { "type": "Point", "coordinates": [ -8.682002552483425, 39.23100008342476 ] } },
{ "type": "Feature", "properties": { "name": "Bragança", "ne_id":  "1159115789" }, "geometry": { "type": "Point", "coordinates": [ -6.755003425781467, 41.80799701416538 ] } },
{ "type": "Feature", "properties": { "name": "Castelo Branco", "ne_id":  "1159115809" }, "geometry": { "type": "Point", "coordinates": [ -7.487999559095442, 39.810996148331355 ] } },
{ "type": "Feature", "properties": { "name": "Guarda", "ne_id":  "1159115829" }, "geometry": { "type": "Point", "coordinates": [ -7.262000511520284, 40.541004143211012 ] } },
{ "type": "Feature", "properties": { "name": "Viseu", "ne_id":  "1159115849" }, "geometry": { "type": "Point", "coordinates": [ -7.910000431341302, 40.656996108008002 ] } },
{ "type": "Feature", "properties": { "name": "Vila Real", "ne_id":  "1159115855" }, "geometry": { "type": "Point", "coordinates": [ -7.737002490137002, 41.293998149321794 ] } },
{ "type": "Feature", "properties": { "name": "An Nabk", "ne_id":  "1159115897" }, "geometry": { "type": "Point", "coordinates": [ 37.333296534498515, 31.333302045819607 ] } },
{ "type": "Feature", "properties": { "name": "Assen", "ne_id":  "1159115923" }, "geometry": { "type": "Point", "coordinates": [ 6.550002584636275, 53.000001092350601 ] } },
{ "type": "Feature", "properties": { "name": "Arnhem", "ne_id":  "1159115945" }, "geometry": { "type": "Point", "coordinates": [ 5.922999562462564, 51.987996034456728 ] } },
{ "type": "Feature", "properties": { "name": "Maastricht", "ne_id":  "1159115953" }, "geometry": { "type": "Point", "coordinates": [ 5.677002476606958, 50.852997067177284 ] } },
{ "type": "Feature", "properties": { "name": "Zwolle", "ne_id":  "1159115983" }, "geometry": { "type": "Point", "coordinates": [ 6.096996528517536, 52.524000088883326 ] } },
{ "type": "Feature", "properties": { "name": "Middelburg", "ne_id":  "1159116007" }, "geometry": { "type": "Point", "coordinates": [ 3.609999540673243, 51.501996177332728 ] } },
{ "type": "Feature", "properties": { "name": "'s-Hertogenbosch", "ne_id":  "1159116023" }, "geometry": { "type": "Point", "coordinates": [ 5.316660484814179, 51.683337142699713 ] } },
{ "type": "Feature", "properties": { "name": "Arendal", "ne_id":  "1159116047" }, "geometry": { "type": "Point", "coordinates": [ 8.766000553457104, 58.464756055522116 ] } },
{ "type": "Feature", "properties": { "name": "Vossavangen", "ne_id":  "1159116055" }, "geometry": { "type": "Point", "coordinates": [ 6.441003462826245, 60.63000316477013 ] } },
{ "type": "Feature", "properties": { "name": "Leikanger", "ne_id":  "1159116077" }, "geometry": { "type": "Point", "coordinates": [ 6.849999470745956, 61.183296124492415 ] } },
{ "type": "Feature", "properties": { "name": "Bærum", "ne_id":  "1159116103" }, "geometry": { "type": "Point", "coordinates": [ 11.347236513611961, 59.913486059723652 ] } },
{ "type": "Feature", "properties": { "name": "Hamar", "ne_id":  "1159116127" }, "geometry": { "type": "Point", "coordinates": [ 11.069001556106116, 60.820002069703264 ] } },
{ "type": "Feature", "properties": { "name": "Tønsberg", "ne_id":  "1159116137" }, "geometry": { "type": "Point", "coordinates": [ 10.4210014708014, 59.264001089544877 ] } },
{ "type": "Feature", "properties": { "name": "Dubăsari", "ne_id":  "1159116487" }, "geometry": { "type": "Point", "coordinates": [ 29.160833300000036, 47.263055600000143 ] } },
{ "type": "Feature", "properties": { "name": "Fribourg", "ne_id":  "1159116915" }, "geometry": { "type": "Point", "coordinates": [ 7.149996522339677, 46.800000080034579 ] } },
{ "type": "Feature", "properties": { "name": "Liestal", "ne_id":  "1159116933" }, "geometry": { "type": "Point", "coordinates": [ 7.737003467952093, 47.48300111764712 ] } },
{ "type": "Feature", "properties": { "name": "Solothurn", "ne_id":  "1159116949" }, "geometry": { "type": "Point", "coordinates": [ 7.536996607761182, 47.212002098623827 ] } },
{ "type": "Feature", "properties": { "name": "Sarnen", "ne_id":  "1159116963" }, "geometry": { "type": "Point", "coordinates": [ 8.243001528840296, 46.89900001722043 ] } },
{ "type": "Feature", "properties": { "name": "Mariestad", "ne_id":  "1159116987" }, "geometry": { "type": "Point", "coordinates": [ 13.827996587824487, 58.705002087769515 ] } },
{ "type": "Feature", "properties": { "name": "Vannersborg", "ne_id":  "1159117009" }, "geometry": { "type": "Point", "coordinates": [ 12.330000608924081, 58.363002139279729 ] } },
{ "type": "Feature", "properties": { "name": "Appenzell", "ne_id":  "1159117027" }, "geometry": { "type": "Point", "coordinates": [ 9.41670050466189, 47.333304103077467 ] } },
{ "type": "Feature", "properties": { "name": "Ros Comain", "ne_id":  "1159117035" }, "geometry": { "type": "Point", "coordinates": [ -8.183333300000015, 53.633333300000118 ] } },
{ "type": "Feature", "properties": { "name": "Potenza", "ne_id":  "1159117259" }, "geometry": { "type": "Point", "coordinates": [ 15.798996495640267, 40.642002130098206 ] } },
{ "type": "Feature", "properties": { "name": "Campobasso", "ne_id":  "1159117283" }, "geometry": { "type": "Point", "coordinates": [ 14.655996558921856, 41.562999118643972 ] } },
{ "type": "Feature", "properties": { "name": "Al Mafraq", "ne_id":  "1159117307" }, "geometry": { "type": "Point", "coordinates": [ 36.233298519527068, 32.283297066935575 ] } },
{ "type": "Feature", "properties": { "name": "At Tafilah", "ne_id":  "1159117321" }, "geometry": { "type": "Point", "coordinates": [ 35.600004636048595, 30.833334043989339 ] } },
{ "type": "Feature", "properties": { "name": "Ma'an", "ne_id":  "1159117345" }, "geometry": { "type": "Point", "coordinates": [ 35.736003575243842, 30.19200311563435 ] } },
{ "type": "Feature", "properties": { "name": "Aosta", "ne_id":  "1159117361" }, "geometry": { "type": "Point", "coordinates": [ 7.315002595706176, 45.737001067072299 ] } },
{ "type": "Feature", "properties": { "name": "Diekirch", "ne_id":  "1159117375" }, "geometry": { "type": "Point", "coordinates": [ 6.166701555448867, 49.883301050949228 ] } },
{ "type": "Feature", "properties": { "name": "Grevenmacher", "ne_id":  "1159117399" }, "geometry": { "type": "Point", "coordinates": [ 6.33330057451883, 49.699998111318678 ] } },
{ "type": "Feature", "properties": { "name": "Šibenik", "ne_id":  "1159118027" }, "geometry": { "type": "Point", "coordinates": [ 15.905833299999983, 43.727222199999972 ] } },
{ "type": "Feature", "properties": { "name": "Shibin el Kom", "ne_id":  "1159118087" }, "geometry": { "type": "Point", "coordinates": [ 30.899997486850509, 30.59199912926448 ] } },
{ "type": "Feature", "properties": { "name": "Benha", "ne_id":  "1159118097" }, "geometry": { "type": "Point", "coordinates": [ 31.183335629439057, 30.466665115454191 ] } },
{ "type": "Feature", "properties": { "name": "Zagazig", "ne_id":  "1159118123" }, "geometry": { "type": "Point", "coordinates": [ 31.516659600643948, 30.583332088097222 ] } },
{ "type": "Feature", "properties": { "name": "Kafr el Sheikh", "ne_id":  "1159118131" }, "geometry": { "type": "Point", "coordinates": [ 30.93599762949259, 31.109004004777432 ] } },
{ "type": "Feature", "properties": { "name": "Haapsalu", "ne_id":  "1159118197" }, "geometry": { "type": "Point", "coordinates": [ 23.541388900000129, 58.943055600000093 ] } },
{ "type": "Feature", "properties": { "name": "Viljandi", "ne_id":  "1159119053" }, "geometry": { "type": "Point", "coordinates": [ 25.59, 58.363888900000063 ] } },
{ "type": "Feature", "properties": { "name": "Lamia", "ne_id":  "1159119107" }, "geometry": { "type": "Point", "coordinates": [ 22.434003575495694, 38.898999154075341 ] } },
{ "type": "Feature", "properties": { "name": "Polygyros", "ne_id":  "1159119133" }, "geometry": { "type": "Point", "coordinates": [ 23.453001476376755, 40.381002130215222 ] } },
{ "type": "Feature", "properties": { "name": "Komatini", "ne_id":  "1159119151" }, "geometry": { "type": "Point", "coordinates": [ 25.416702561919578, 41.133303090761274 ] } },
{ "type": "Feature", "properties": { "name": "B'abda", "ne_id":  "1159119175" }, "geometry": { "type": "Point", "coordinates": [ 35.533296518185807, 33.833304063473634 ] } },
{ "type": "Feature", "properties": { "name": "Ramla", "ne_id":  "1159119203" }, "geometry": { "type": "Point", "coordinates": [ 34.866702523448851, 31.916700123792111 ] } },
{ "type": "Feature", "properties": { "name": "Nabatiye et Tahta", "ne_id":  "1159119221" }, "geometry": { "type": "Point", "coordinates": [ 35.450001642193115, 33.383304018024603 ] } },
{ "type": "Feature", "properties": { "name": "Mariehamn", "ne_id":  "1159119239" }, "geometry": { "type": "Point", "coordinates": [ 19.949004471869102, 60.096996184895431 ] } },
{ "type": "Feature", "properties": { "name": "Hämeenlinna", "ne_id":  "1159119251" }, "geometry": { "type": "Point", "coordinates": [ 24.471999542741628, 60.996996110309965 ] } },
{ "type": "Feature", "properties": { "name": "Kouvola", "ne_id":  "1159119269" }, "geometry": { "type": "Point", "coordinates": [ 26.709003510811272, 60.876000085142323 ] } },
{ "type": "Feature", "properties": { "name": "Mikkeli", "ne_id":  "1159119287" }, "geometry": { "type": "Point", "coordinates": [ 27.285003476315183, 61.689996167063043 ] } },
{ "type": "Feature", "properties": { "name": "Muineachan", "ne_id":  "1159119463" }, "geometry": { "type": "Point", "coordinates": [ -6.966666699999962, 54.25 ] } },
{ "type": "Feature", "properties": { "name": "Vejle", "ne_id":  "1159119483" }, "geometry": { "type": "Point", "coordinates": [ 9.534996498445992, 55.709001028367595 ] } },
{ "type": "Feature", "properties": { "name": "Hillerød", "ne_id":  "1159119497" }, "geometry": { "type": "Point", "coordinates": [ 12.316698535946045, 55.93329906940977 ] } },
{ "type": "Feature", "properties": { "name": "Sorø", "ne_id":  "1159119505" }, "geometry": { "type": "Point", "coordinates": [ 11.566701604386992, 55.432998114457007 ] } },
{ "type": "Feature", "properties": { "name": "Krujë", "ne_id":  "1159119919" }, "geometry": { "type": "Point", "coordinates": [ 19.797003593795921, 41.518998172046395 ] } },
{ "type": "Feature", "properties": { "name": "Fier", "ne_id":  "1159119937" }, "geometry": { "type": "Point", "coordinates": [ 19.573002595921935, 40.730004023293361 ] } },
{ "type": "Feature", "properties": { "name": "Lushnjë", "ne_id":  "1159119955" }, "geometry": { "type": "Point", "coordinates": [ 19.716003479705535, 40.940001131990584 ] } },
{ "type": "Feature", "properties": { "name": "Pukë", "ne_id":  "1159119975" }, "geometry": { "type": "Point", "coordinates": [ 19.883304480457923, 42.033303016175807 ] } },
{ "type": "Feature", "properties": { "name": "Bajram Curri", "ne_id":  "1159119991" }, "geometry": { "type": "Point", "coordinates": [ 20.083302570014837, 42.333300067769301 ] } },
{ "type": "Feature", "properties": { "name": "Kukës", "ne_id":  "1159120009" }, "geometry": { "type": "Point", "coordinates": [ 20.433996533508491, 42.083001068708995 ] } },
{ "type": "Feature", "properties": { "name": "Sarandë", "ne_id":  "1159120029" }, "geometry": { "type": "Point", "coordinates": [ 19.999998592421093, 39.877002119028305 ] } },
{ "type": "Feature", "properties": { "name": "Ersekë", "ne_id":  "1159120047" }, "geometry": { "type": "Point", "coordinates": [ 20.683296507718239, 40.33330212738332 ] } },
{ "type": "Feature", "properties": { "name": "Pogradec", "ne_id":  "1159120063" }, "geometry": { "type": "Point", "coordinates": [ 20.664000616603801, 40.899996119311879 ] } },
{ "type": "Feature", "properties": { "name": "Korçë", "ne_id":  "1159120077" }, "geometry": { "type": "Point", "coordinates": [ 20.766663534586371, 40.616676014442191 ] } },
{ "type": "Feature", "properties": { "name": "Berat", "ne_id":  "1159120101" }, "geometry": { "type": "Point", "coordinates": [ 19.97199958470145, 40.709997048895104 ] } },
{ "type": "Feature", "properties": { "name": "Çorovodë", "ne_id":  "1159120119" }, "geometry": { "type": "Point", "coordinates": [ 20.23329662775285, 40.516704026242053 ] } },
{ "type": "Feature", "properties": { "name": "Gramsh", "ne_id":  "1159120129" }, "geometry": { "type": "Point", "coordinates": [ 20.199996516494366, 40.866696008053339 ] } },
{ "type": "Feature", "properties": { "name": "Librazhd", "ne_id":  "1159120149" }, "geometry": { "type": "Point", "coordinates": [ 20.366703596393791, 41.20000210702301 ] } },
{ "type": "Feature", "properties": { "name": "Tepelenë", "ne_id":  "1159120171" }, "geometry": { "type": "Point", "coordinates": [ 20.033298538195993, 40.283298095564476 ] } },
{ "type": "Feature", "properties": { "name": "Përmet", "ne_id":  "1159120189" }, "geometry": { "type": "Point", "coordinates": [ 20.351997560051188, 40.23399604542783 ] } },
{ "type": "Feature", "properties": { "name": "Gjirokastër", "ne_id":  "1159120207" }, "geometry": { "type": "Point", "coordinates": [ 20.149002561426016, 40.078998092802749 ] } },
{ "type": "Feature", "properties": { "name": "Peshkopi", "ne_id":  "1159120227" }, "geometry": { "type": "Point", "coordinates": [ 20.433303487943761, 41.683302098247054 ] } },
{ "type": "Feature", "properties": { "name": "Burrel", "ne_id":  "1159120241" }, "geometry": { "type": "Point", "coordinates": [ 20.016000531299028, 41.625999078671441 ] } },
{ "type": "Feature", "properties": { "name": "Lezhë", "ne_id":  "1159120259" }, "geometry": { "type": "Point", "coordinates": [ 19.65400254452868, 41.787999141368573 ] } },
{ "type": "Feature", "properties": { "name": "Rrëshen", "ne_id":  "1159120277" }, "geometry": { "type": "Point", "coordinates": [ 19.816704588908181, 41.783301060283691 ] } },
{ "type": "Feature", "properties": { "name": "Ashtarak", "ne_id":  "1159120297" }, "geometry": { "type": "Point", "coordinates": [ 44.35916670000006, 40.301666700000055 ] } },
{ "type": "Feature", "properties": { "name": "Mons", "ne_id":  "1159120321" }, "geometry": { "type": "Point", "coordinates": [ 3.939003560954575, 50.445999108958745 ] } },
{ "type": "Feature", "properties": { "name": "Hasselt", "ne_id":  "1159120339" }, "geometry": { "type": "Point", "coordinates": [ 5.483997561004287, 50.964003174806066 ] } },
{ "type": "Feature", "properties": { "name": "Ijevan", "ne_id":  "1159120357" }, "geometry": { "type": "Point", "coordinates": [ 45.149166700000023, 40.875555600000041 ] } },
{ "type": "Feature", "properties": { "name": "Artashat", "ne_id":  "1159120381" }, "geometry": { "type": "Point", "coordinates": [ 44.5505556, 39.953888899999981 ] } },
{ "type": "Feature", "properties": { "name": "Gavarr", "ne_id":  "1159120397" }, "geometry": { "type": "Point", "coordinates": [ 45.126666699999987, 40.358888900000068 ] } },
{ "type": "Feature", "properties": { "name": "Gadabay", "ne_id":  "1159120421" }, "geometry": { "type": "Point", "coordinates": [ 45.8161111, 40.565555600000039 ] } },
{ "type": "Feature", "properties": { "name": "Goranboy", "ne_id":  "1159120437" }, "geometry": { "type": "Point", "coordinates": [ 46.789722200000028, 40.6102778 ] } },
{ "type": "Feature", "properties": { "name": "Tovuz", "ne_id":  "1159120461" }, "geometry": { "type": "Point", "coordinates": [ 45.628888900000049, 40.992222199999958 ] } },
{ "type": "Feature", "properties": { "name": "Agdam", "ne_id":  "1159120479" }, "geometry": { "type": "Point", "coordinates": [ 45.556388899999945, 40.905277800000079 ] } },
{ "type": "Feature", "properties": { "name": "Qabala", "ne_id":  "1159120491" }, "geometry": { "type": "Point", "coordinates": [ 47.845833299999981, 40.981388899999956 ] } },
{ "type": "Feature", "properties": { "name": "Oğuz", "ne_id":  "1159120515" }, "geometry": { "type": "Point", "coordinates": [ 47.458333300000106, 41.0708333 ] } },
{ "type": "Feature", "properties": { "name": "Yeghegnadzor", "ne_id":  "1159120533" }, "geometry": { "type": "Point", "coordinates": [ 45.333333300000106, 39.761111100000107 ] } },
{ "type": "Feature", "properties": { "name": "Zaranj", "ne_id":  "1159120605" }, "geometry": { "type": "Point", "coordinates": [ 61.88699751862157, 31.112001079329332 ] } },
{ "type": "Feature", "properties": { "name": "Jijel", "ne_id":  "1159120945" }, "geometry": { "type": "Point", "coordinates": [ 5.766003560136312, 36.821997033517675 ] } },
{ "type": "Feature", "properties": { "name": "Tizi-Ouzou", "ne_id":  "1159120991" }, "geometry": { "type": "Point", "coordinates": [ 4.033332556375854, 36.800001111019526 ] } },
{ "type": "Feature", "properties": { "name": "Bordj Bou Arréridj", "ne_id":  "1159121009" }, "geometry": { "type": "Point", "coordinates": [ 4.629996466405032, 36.059004008266527 ] } },
{ "type": "Feature", "properties": { "name": "M'sila", "ne_id":  "1159121019" }, "geometry": { "type": "Point", "coordinates": [ 4.545000583879414, 35.700003096048079 ] } },
{ "type": "Feature", "properties": { "name": "Guelma", "ne_id":  "1159121039" }, "geometry": { "type": "Point", "coordinates": [ 7.42799748595138, 36.466002131968708 ] } },
{ "type": "Feature", "properties": { "name": "Oum el Bouaghi", "ne_id":  "1159121049" }, "geometry": { "type": "Point", "coordinates": [ 7.149996522339677, 35.849997153786092 ] } },
{ "type": "Feature", "properties": { "name": "Lovec", "ne_id":  "1159121071" }, "geometry": { "type": "Point", "coordinates": [ 24.719004589565429, 43.13799911223208 ] } },
{ "type": "Feature", "properties": { "name": "Montana", "ne_id":  "1159121085" }, "geometry": { "type": "Point", "coordinates": [ 23.237001613425548, 43.414002026142668 ] } },
{ "type": "Feature", "properties": { "name": "Razgrad", "ne_id":  "1159121103" }, "geometry": { "type": "Point", "coordinates": [ 26.535996633489219, 43.533999026459753 ] } },
{ "type": "Feature", "properties": { "name": "Arlon", "ne_id":  "1159121119" }, "geometry": { "type": "Point", "coordinates": [ 5.816700472036302, 49.683303126875956 ] } },
{ "type": "Feature", "properties": { "name": "Bregenz", "ne_id":  "1159121131" }, "geometry": { "type": "Point", "coordinates": [ 9.766701588074284, 47.516697065818562 ] } },
{ "type": "Feature", "properties": { "name": "Eisenstadt", "ne_id":  "1159121147" }, "geometry": { "type": "Point", "coordinates": [ 16.533297467606985, 47.833299078744233 ] } },
{ "type": "Feature", "properties": { "name": "Larnaka", "ne_id":  "1159121843" }, "geometry": { "type": "Point", "coordinates": [ 33.635997571220003, 34.917003096398901 ] } },
{ "type": "Feature", "properties": { "name": "Paphos", "ne_id":  "1159121859" }, "geometry": { "type": "Point", "coordinates": [ 32.422456664429262, 34.755915164171938 ] } },
{ "type": "Feature", "properties": { "name": "Ramallah", "ne_id":  "1159121947" }, "geometry": { "type": "Point", "coordinates": [ 35.206209378189556, 31.902944751424059 ] } },
{ "type": "Feature", "properties": { "name": "Kyrenia", "ne_id":  "1159121963" }, "geometry": { "type": "Point", "coordinates": [ 33.333003610558194, 35.325999104318612 ] } },
{ "type": "Feature", "properties": { "name": "Borgarnes", "ne_id":  "1159122109" }, "geometry": { "type": "Point", "coordinates": [ -21.862322187037591, 64.569502772097849 ] } },
{ "type": "Feature", "properties": { "name": "Sakakah", "ne_id":  "1159122257" }, "geometry": { "type": "Point", "coordinates": [ 40.133304539863616, 29.999997059398822 ] } },
{ "type": "Feature", "properties": { "name": "Nazran", "ne_id":  "1159122297" }, "geometry": { "type": "Point", "coordinates": [ 44.783001512473447, 43.233003115499287 ] } },
{ "type": "Feature", "properties": { "name": "Klaksvík", "ne_id":  "1159122417" }, "geometry": { "type": "Point", "coordinates": [ -6.539011490345274, 62.237478303392209 ] } },
{ "type": "Feature", "properties": { "name": "Mainz", "ne_id":  "1159122449" }, "geometry": { "type": "Point", "coordinates": [ 8.273219155500556, 49.982472455012783 ] } },
{ "type": "Feature", "properties": { "name": "Usti Nad Labem", "ne_id":  "1159122463" }, "geometry": { "type": "Point", "coordinates": [ 14.081004554386141, 50.662998162244321 ] } },
{ "type": "Feature", "properties": { "name": "Hradec Králové", "ne_id":  "1159122475" }, "geometry": { "type": "Point", "coordinates": [ 15.812001525449944, 50.205996172206937 ] } },
{ "type": "Feature", "properties": { "name": "Dahuk", "ne_id":  "1159122521" }, "geometry": { "type": "Point", "coordinates": [ 43.000002625372872, 36.866700127281263 ] } },
{ "type": "Feature", "properties": { "name": "Samarra", "ne_id":  "1159122533" }, "geometry": { "type": "Point", "coordinates": [ 43.875000617619889, 34.193997046107597 ] } },
{ "type": "Feature", "properties": { "name": "Schwerin", "ne_id":  "1159122581" }, "geometry": { "type": "Point", "coordinates": [ 11.416698610531512, 53.633304077430296 ] } },
{ "type": "Feature", "properties": { "name": "Yasuj", "ne_id":  "1159122613" }, "geometry": { "type": "Point", "coordinates": [ 51.594003608085018, 30.659004124812043 ] } },
{ "type": "Feature", "properties": { "name": "Shar e Kord", "ne_id":  "1159122629" }, "geometry": { "type": "Point", "coordinates": [ 50.853996594064995, 32.320998050627111 ] } },
{ "type": "Feature", "properties": { "name": "Mangyshlak", "ne_id":  "1159122651" }, "geometry": { "type": "Point", "coordinates": [ 51.141735609086595, 43.690455055606037 ] } },
{ "type": "Feature", "properties": { "name": "Marbella", "ne_id":  "1159126061" }, "geometry": { "type": "Point", "coordinates": [ -4.883330120249298, 36.516619892415122 ] } },
{ "type": "Feature", "properties": { "name": "Linares", "ne_id":  "1159126081" }, "geometry": { "type": "Point", "coordinates": [ -3.633354737757315, 38.083320128424077 ] } },
{ "type": "Feature", "properties": { "name": "Algeciras", "ne_id":  "1159126095" }, "geometry": { "type": "Point", "coordinates": [ -5.466530362841297, 36.126712148240358 ] } },
{ "type": "Feature", "properties": { "name": "León", "ne_id":  "1159126109" }, "geometry": { "type": "Point", "coordinates": [ -5.570006552543703, 42.579970722517487 ] } },
{ "type": "Feature", "properties": { "name": "Mataró", "ne_id":  "1159126121" }, "geometry": { "type": "Point", "coordinates": [ 2.450020709858279, 41.539956684427466 ] } },
{ "type": "Feature", "properties": { "name": "Al Ladhiqiyah", "ne_id":  "1159126139" }, "geometry": { "type": "Point", "coordinates": [ 35.779975950876974, 35.539986998530992 ] } },
{ "type": "Feature", "properties": { "name": "Madinat ath Thawrah", "ne_id":  "1159126149" }, "geometry": { "type": "Point", "coordinates": [ 38.54807572302343, 35.836661396318732 ] } },
{ "type": "Feature", "properties": { "name": "Izaz", "ne_id":  "1159126163" }, "geometry": { "type": "Point", "coordinates": [ 37.044084837600735, 36.588786030110668 ] } },
{ "type": "Feature", "properties": { "name": "Manbij", "ne_id":  "1159126179" }, "geometry": { "type": "Point", "coordinates": [ 37.956328896849186, 36.526645120279738 ] } },
{ "type": "Feature", "properties": { "name": "Idlib", "ne_id":  "1159126193" }, "geometry": { "type": "Point", "coordinates": [ 36.631655231479328, 35.929704812660191 ] } },
{ "type": "Feature", "properties": { "name": "Al Qamishli", "ne_id":  "1159126205" }, "geometry": { "type": "Point", "coordinates": [ 41.229979206107089, 37.030025247234846 ] } },
{ "type": "Feature", "properties": { "name": "Al Hasakah", "ne_id":  "1159126219" }, "geometry": { "type": "Point", "coordinates": [ 40.750008502980165, 36.483288593586963 ] } },
{ "type": "Feature", "properties": { "name": "Douma", "ne_id":  "1159126233" }, "geometry": { "type": "Point", "coordinates": [ 36.399989785514947, 33.583336404447664 ] } },
{ "type": "Feature", "properties": { "name": "Chur", "ne_id":  "1159126273" }, "geometry": { "type": "Point", "coordinates": [ 9.500029661709334, 46.850020161011173 ] } },
{ "type": "Feature", "properties": { "name": "Borlänge", "ne_id":  "1159126673" }, "geometry": { "type": "Point", "coordinates": [ 15.416671100535154, 60.483322366469224 ] } },
{ "type": "Feature", "properties": { "name": "Västerås", "ne_id":  "1159126687" }, "geometry": { "type": "Point", "coordinates": [ 16.540013385695829, 59.6300152782498 ] } },
{ "type": "Feature", "properties": { "name": "Mykolayiv", "ne_id":  "1159126699" }, "geometry": { "type": "Point", "coordinates": [ 31.984341999038918, 46.967739073772123 ] } },
{ "type": "Feature", "properties": { "name": "Chernihiv", "ne_id":  "1159126717" }, "geometry": { "type": "Point", "coordinates": [ 31.301541299166331, 51.504929828998513 ] } },
{ "type": "Feature", "properties": { "name": "Khmelnytskyy", "ne_id":  "1159126729" }, "geometry": { "type": "Point", "coordinates": [ 27.001545368159555, 49.424927591034418 ] } },
{ "type": "Feature", "properties": { "name": "Kamyanets-Podilskyy", "ne_id":  "1159126743" }, "geometry": { "type": "Point", "coordinates": [ 26.580899209303595, 48.684300963427347 ] } },
{ "type": "Feature", "properties": { "name": "Drohobych", "ne_id":  "1159126757" }, "geometry": { "type": "Point", "coordinates": [ 23.499381875307108, 49.344364033091381 ] } },
{ "type": "Feature", "properties": { "name": "Uzhgorod", "ne_id":  "1159126765" }, "geometry": { "type": "Point", "coordinates": [ 22.25000077178629, 48.629989033088634 ] } },
{ "type": "Feature", "properties": { "name": "Uman", "ne_id":  "1159126781" }, "geometry": { "type": "Point", "coordinates": [ 30.210910195646363, 48.754296690966555 ] } },
{ "type": "Feature", "properties": { "name": "Brovary", "ne_id":  "1159126797" }, "geometry": { "type": "Point", "coordinates": [ 30.780901243825667, 50.494319680882541 ] } },
{ "type": "Feature", "properties": { "name": "Bila Tserkva", "ne_id":  "1159126811" }, "geometry": { "type": "Point", "coordinates": [ 30.130915078458543, 49.774311949759863 ] } },
{ "type": "Feature", "properties": { "name": "Illichivsk", "ne_id":  "1159126825" }, "geometry": { "type": "Point", "coordinates": [ 30.666592975596075, 46.300002053912635 ] } },
{ "type": "Feature", "properties": { "name": "Konotop", "ne_id":  "1159126837" }, "geometry": { "type": "Point", "coordinates": [ 33.209021767924014, 51.242387714739607 ] } },
{ "type": "Feature", "properties": { "name": "Kryvyy Rih", "ne_id":  "1159126851" }, "geometry": { "type": "Point", "coordinates": [ 33.344982461283962, 47.928326435429483 ] } },
{ "type": "Feature", "properties": { "name": "Makiyivka", "ne_id":  "1159126859" }, "geometry": { "type": "Point", "coordinates": [ 37.974622353880534, 48.029663919153904 ] } },
{ "type": "Feature", "properties": { "name": "Horlivka", "ne_id":  "1159126879" }, "geometry": { "type": "Point", "coordinates": [ 38.054669147500704, 48.299647439662806 ] } },
{ "type": "Feature", "properties": { "name": "Kramatorsk", "ne_id":  "1159126891" }, "geometry": { "type": "Point", "coordinates": [ 37.534390827186144, 48.719363422737331 ] } },
{ "type": "Feature", "properties": { "name": "Berdyansk", "ne_id":  "1159126903" }, "geometry": { "type": "Point", "coordinates": [ 36.786839557651774, 46.756821715372723 ] } },
{ "type": "Feature", "properties": { "name": "Gyzlarbat", "ne_id":  "1159126955" }, "geometry": { "type": "Point", "coordinates": [ 56.27779455447461, 38.975539570159242 ] } },
{ "type": "Feature", "properties": { "name": "Celeken", "ne_id":  "1159126969" }, "geometry": { "type": "Point", "coordinates": [ 53.122591194879249, 39.436154876667729 ] } },
{ "type": "Feature", "properties": { "name": "Tejen", "ne_id":  "1159126981" }, "geometry": { "type": "Point", "coordinates": [ 60.496038369595624, 37.378608621259787 ] } },
{ "type": "Feature", "properties": { "name": "Buzmeyin", "ne_id":  "1159126999" }, "geometry": { "type": "Point", "coordinates": [ 58.210028034300024, 38.051668313645166 ] } },
{ "type": "Feature", "properties": { "name": "Koneurgench", "ne_id":  "1159127011" }, "geometry": { "type": "Point", "coordinates": [ 59.166662148887212, 42.316653461774308 ] } },
{ "type": "Feature", "properties": { "name": "Khujayli", "ne_id":  "1159127025" }, "geometry": { "type": "Point", "coordinates": [ 59.451657672976751, 42.40471010239952 ] } },
{ "type": "Feature", "properties": { "name": "Gijón", "ne_id":  "1159127215" }, "geometry": { "type": "Point", "coordinates": [ -5.670000449028464, 43.530016091987363 ] } },
{ "type": "Feature", "properties": { "name": "Vitoria", "ne_id":  "1159127229" }, "geometry": { "type": "Point", "coordinates": [ -2.66997684875605, 42.849980081242563 ] } },
{ "type": "Feature", "properties": { "name": "Vatican City", "ne_id":  "1159127243" }, "geometry": { "type": "Point", "coordinates": [ 12.453386544971766, 41.903282179960115 ] } },
{ "type": "Feature", "properties": { "name": "Greenock", "ne_id":  "1159127257" }, "geometry": { "type": "Point", "coordinates": [ -4.750030763152381, 55.933290017818308 ] } },
{ "type": "Feature", "properties": { "name": "Sunderland", "ne_id":  "1159127269" }, "geometry": { "type": "Point", "coordinates": [ -1.380029745886247, 54.920018533439304 ] } },
{ "type": "Feature", "properties": { "name": "Southampton", "ne_id":  "1159127279" }, "geometry": { "type": "Point", "coordinates": [ -1.399976848750896, 50.900031350805989 ] } },
{ "type": "Feature", "properties": { "name": "Bristol", "ne_id":  "1159127297" }, "geometry": { "type": "Point", "coordinates": [ -2.583315471802621, 51.449997781472348 ] } },
{ "type": "Feature", "properties": { "name": "Bournemouth", "ne_id":  "1159127311" }, "geometry": { "type": "Point", "coordinates": [ -1.900049684039459, 50.72999005034967 ] } },
{ "type": "Feature", "properties": { "name": "Omagh", "ne_id":  "1159127323" }, "geometry": { "type": "Point", "coordinates": [ -7.300004314594844, 54.60001222647179 ] } },
{ "type": "Feature", "properties": { "name": "Chester", "ne_id":  "1159127337" }, "geometry": { "type": "Point", "coordinates": [ -2.919987428184072, 53.200020161036491 ] } },
{ "type": "Feature", "properties": { "name": "Swansea", "ne_id":  "1159127355" }, "geometry": { "type": "Point", "coordinates": [ -3.950002076625651, 51.629986795144873 ] } },
{ "type": "Feature", "properties": { "name": "Carlisle", "ne_id":  "1159127365" }, "geometry": { "type": "Point", "coordinates": [ -2.929986817832628, 54.879995136629248 ] } },
{ "type": "Feature", "properties": { "name": "Aydın", "ne_id":  "1159127383" }, "geometry": { "type": "Point", "coordinates": [ 27.850020709959836, 37.84997519841005 ] } },
{ "type": "Feature", "properties": { "name": "Lüleburgaz", "ne_id":  "1159127395" }, "geometry": { "type": "Point", "coordinates": [ 27.355218870765214, 41.406657327330549 ] } },
{ "type": "Feature", "properties": { "name": "Isparta", "ne_id":  "1159127405" }, "geometry": { "type": "Point", "coordinates": [ 30.529960488616325, 37.769980081222286 ] } },
{ "type": "Feature", "properties": { "name": "Kütahya", "ne_id":  "1159127413" }, "geometry": { "type": "Point", "coordinates": [ 29.929997109707699, 39.420008564301668 ] } },
{ "type": "Feature", "properties": { "name": "Muğla", "ne_id":  "1159127429" }, "geometry": { "type": "Point", "coordinates": [ 28.363891152670192, 37.21637046207934 ] } },
{ "type": "Feature", "properties": { "name": "Elâzığ", "ne_id":  "1159127441" }, "geometry": { "type": "Point", "coordinates": [ 39.229997923546989, 38.679976215666045 ] } },
{ "type": "Feature", "properties": { "name": "Kahramanmaraş", "ne_id":  "1159127453" }, "geometry": { "type": "Point", "coordinates": [ 36.945021116897351, 37.609989846846531 ] } },
{ "type": "Feature", "properties": { "name": "Icel", "ne_id":  "1159127463" }, "geometry": { "type": "Point", "coordinates": [ 34.619995075221254, 36.799987608887648 ] } },
{ "type": "Feature", "properties": { "name": "Corum", "ne_id":  "1159127475" }, "geometry": { "type": "Point", "coordinates": [ 34.950000771837153, 40.519993102066564 ] } },
{ "type": "Feature", "properties": { "name": "Rize", "ne_id":  "1159127485" }, "geometry": { "type": "Point", "coordinates": [ 40.521857054411555, 41.020841083839457 ] } },
{ "type": "Feature", "properties": { "name": "Tatvan", "ne_id":  "1159127497" }, "geometry": { "type": "Point", "coordinates": [ 42.281594603246731, 38.506575947110662 ] } },
{ "type": "Feature", "properties": { "name": "Southend-on-Sea", "ne_id":  "1159127607" }, "geometry": { "type": "Point", "coordinates": [ 0.71999710959085, 51.550017516173114 ] } },
{ "type": "Feature", "properties": { "name": "Reading", "ne_id":  "1159127619" }, "geometry": { "type": "Point", "coordinates": [ -0.980028321731083, 51.469970722553114 ] } },
{ "type": "Feature", "properties": { "name": "Leicester", "ne_id":  "1159127629" }, "geometry": { "type": "Point", "coordinates": [ -1.133248943476474, 52.629977436424838 ] } },
{ "type": "Feature", "properties": { "name": "Bradford", "ne_id":  "1159127641" }, "geometry": { "type": "Point", "coordinates": [ -1.74998132466385, 53.800035216377523 ] } },
{ "type": "Feature", "properties": { "name": "Sheffield", "ne_id":  "1159127645" }, "geometry": { "type": "Point", "coordinates": [ -1.499996583451832, 53.366676655177798 ] } },
{ "type": "Feature", "properties": { "name": "Polatlı", "ne_id":  "1159127659" }, "geometry": { "type": "Point", "coordinates": [ 32.147226113622821, 39.584158751476934 ] } },
{ "type": "Feature", "properties": { "name": "Karabük", "ne_id":  "1159127675" }, "geometry": { "type": "Point", "coordinates": [ 32.600015013364214, 41.20000327459536 ] } },
{ "type": "Feature", "properties": { "name": "Nusaybin", "ne_id":  "1159127687" }, "geometry": { "type": "Point", "coordinates": [ 41.218352008841464, 37.074983743328801 ] } },
{ "type": "Feature", "properties": { "name": "Hakkâri", "ne_id":  "1159127697" }, "geometry": { "type": "Point", "coordinates": [ 43.740833698304641, 37.574436461429798 ] } },
{ "type": "Feature", "properties": { "name": "Szombathely", "ne_id":  "1159127709" }, "geometry": { "type": "Point", "coordinates": [ 16.628741819940899, 47.225346088747017 ] } },
{ "type": "Feature", "properties": { "name": "Kecskemét", "ne_id":  "1159127719" }, "geometry": { "type": "Point", "coordinates": [ 19.700027220343884, 46.900042947469615 ] } },
{ "type": "Feature", "properties": { "name": "Székesfehérvár", "ne_id":  "1159127731" }, "geometry": { "type": "Point", "coordinates": [ 18.408064736614733, 47.194676126181832 ] } },
{ "type": "Feature", "properties": { "name": "Nyíregyháza", "ne_id":  "1159127743" }, "geometry": { "type": "Point", "coordinates": [ 21.718715371393614, 47.965326760950461 ] } },
{ "type": "Feature", "properties": { "name": "Biel", "ne_id":  "1159127751" }, "geometry": { "type": "Point", "coordinates": [ 7.250037799721099, 47.166589985231099 ] } },
{ "type": "Feature", "properties": { "name": "Drobeta-Turnu Severin", "ne_id":  "1159127777" }, "geometry": { "type": "Point", "coordinates": [ 22.665892698871289, 44.645891132682095 ] } },
{ "type": "Feature", "properties": { "name": "Tulcea", "ne_id":  "1159127789" }, "geometry": { "type": "Point", "coordinates": [ 28.796681273114643, 45.19934572252788 ] } },
{ "type": "Feature", "properties": { "name": "Arad", "ne_id":  "1159127803" }, "geometry": { "type": "Point", "coordinates": [ 21.319980019829586, 46.170009988482377 ] } },
{ "type": "Feature", "properties": { "name": "Oradea", "ne_id":  "1159127807" }, "geometry": { "type": "Point", "coordinates": [ 21.919995075170561, 47.049982115764635 ] } },
{ "type": "Feature", "properties": { "name": "Sibiu", "ne_id":  "1159127819" }, "geometry": { "type": "Point", "coordinates": [ 24.137120726221099, 45.79711285306422 ] } },
{ "type": "Feature", "properties": { "name": "Suceava", "ne_id":  "1159127833" }, "geometry": { "type": "Point", "coordinates": [ 26.259316771151418, 47.637698180219957 ] } },
{ "type": "Feature", "properties": { "name": "Buzău", "ne_id":  "1159127843" }, "geometry": { "type": "Point", "coordinates": [ 26.806518512689991, 45.156505960158029 ] } },
{ "type": "Feature", "properties": { "name": "Galați", "ne_id":  "1159127855" }, "geometry": { "type": "Point", "coordinates": [ 28.045874388346022, 45.455893370640979 ] } },
{ "type": "Feature", "properties": { "name": "Focșani", "ne_id":  "1159127869" }, "geometry": { "type": "Point", "coordinates": [ 27.186546995764388, 45.696550515824185 ] } },
{ "type": "Feature", "properties": { "name": "Braga", "ne_id":  "1159128157" }, "geometry": { "type": "Point", "coordinates": [ -8.421331218896285, 41.554994526224334 ] } },
{ "type": "Feature", "properties": { "name": "Covilhã", "ne_id":  "1159128165" }, "geometry": { "type": "Point", "coordinates": [ -7.499992107564424, 40.283340880385879 ] } },
{ "type": "Feature", "properties": { "name": "Dawmat al Jandal", "ne_id":  "1159128179" }, "geometry": { "type": "Point", "coordinates": [ 39.86639318722149, 29.815297667453422 ] } },
{ "type": "Feature", "properties": { "name": "Finnsnes", "ne_id":  "1159128201" }, "geometry": { "type": "Point", "coordinates": [ 18.008605914998498, 69.240617288379383 ] } },
{ "type": "Feature", "properties": { "name": "Eindhoven", "ne_id":  "1159128209" }, "geometry": { "type": "Point", "coordinates": [ 5.500015420156956, 51.429973163959176 ] } },
{ "type": "Feature", "properties": { "name": "Gjøvik", "ne_id":  "1159128215" }, "geometry": { "type": "Point", "coordinates": [ 10.700008095958935, 60.800021381770136 ] } },
{ "type": "Feature", "properties": { "name": "Rørvik", "ne_id":  "1159128221" }, "geometry": { "type": "Point", "coordinates": [ 11.205300250908863, 64.868015970002546 ] } },
{ "type": "Feature", "properties": { "name": "Banská Bystrica", "ne_id":  "1159128229" }, "geometry": { "type": "Point", "coordinates": [ 19.149983275029115, 48.733290221240054 ] } },
{ "type": "Feature", "properties": { "name": "Trnava", "ne_id":  "1159128235" }, "geometry": { "type": "Point", "coordinates": [ 17.600000364866673, 48.366594257696875 ] } },
{ "type": "Feature", "properties": { "name": "Rēzekne", "ne_id":  "1159128241" }, "geometry": { "type": "Point", "coordinates": [ 27.316564899410821, 56.500025450763303 ] } },
{ "type": "Feature", "properties": { "name": "Panevežys", "ne_id":  "1159128249" }, "geometry": { "type": "Point", "coordinates": [ 24.370026406560442, 55.740020161046743 ] } },
{ "type": "Feature", "properties": { "name": "Šiauliai", "ne_id":  "1159128255" }, "geometry": { "type": "Point", "coordinates": [ 23.325025592754173, 55.938638528560546 ] } },
{ "type": "Feature", "properties": { "name": "Prizren", "ne_id":  "1159128447" }, "geometry": { "type": "Point", "coordinates": [ 20.750092324514867, 42.229320291200963 ] } },
{ "type": "Feature", "properties": { "name": "Maykop", "ne_id":  "1159128473" }, "geometry": { "type": "Point", "coordinates": [ 40.120021116910038, 44.609976012239144 ] } },
{ "type": "Feature", "properties": { "name": "Mozdok", "ne_id":  "1159128479" }, "geometry": { "type": "Point", "coordinates": [ 44.654369668360459, 43.754317646350216 ] } },
{ "type": "Feature", "properties": { "name": "Georgievsk", "ne_id":  "1159128483" }, "geometry": { "type": "Point", "coordinates": [ 43.469945840230594, 44.159900125193133 ] } },
{ "type": "Feature", "properties": { "name": "Pyatigorsk", "ne_id":  "1159128489" }, "geometry": { "type": "Point", "coordinates": [ 43.090020710020781, 44.079956684437548 ] } },
{ "type": "Feature", "properties": { "name": "Kislovodsk", "ne_id":  "1159128493" }, "geometry": { "type": "Point", "coordinates": [ 42.720017454810943, 43.909967060413408 ] } },
{ "type": "Feature", "properties": { "name": "Nevinnomyssk", "ne_id":  "1159128499" }, "geometry": { "type": "Point", "coordinates": [ 41.950038613662173, 44.620052916536054 ] } },
{ "type": "Feature", "properties": { "name": "Chernyakhovsk", "ne_id":  "1159128521" }, "geometry": { "type": "Point", "coordinates": [ 21.810854450170098, 54.631638203034527 ] } },
{ "type": "Feature", "properties": { "name": "Severomorsk", "ne_id":  "1159128525" }, "geometry": { "type": "Point", "coordinates": [ 33.423065550476963, 69.073056456672873 ] } },
{ "type": "Feature", "properties": { "name": "Apatity", "ne_id":  "1159128529" }, "geometry": { "type": "Point", "coordinates": [ 33.393041543315235, 67.573070494752869 ] } },
{ "type": "Feature", "properties": { "name": "Polyarnyy", "ne_id":  "1159128535" }, "geometry": { "type": "Point", "coordinates": [ 33.450247353862494, 69.20521893225947 ] } },
{ "type": "Feature", "properties": { "name": "Slantsy", "ne_id":  "1159128539" }, "geometry": { "type": "Point", "coordinates": [ 28.074658161132618, 59.111597309497654 ] } },
{ "type": "Feature", "properties": { "name": "Kolpino", "ne_id":  "1159128545" }, "geometry": { "type": "Point", "coordinates": [ 30.650004840830377, 59.730009174734562 ] } },
{ "type": "Feature", "properties": { "name": "Novozybkov", "ne_id":  "1159128553" }, "geometry": { "type": "Point", "coordinates": [ 31.944861204767903, 52.53481528635939 ] } },
{ "type": "Feature", "properties": { "name": "Dyatkovo", "ne_id":  "1159128559" }, "geometry": { "type": "Point", "coordinates": [ 34.339185342147175, 53.589143696194242 ] } },
{ "type": "Feature", "properties": { "name": "Shuya", "ne_id":  "1159128565" }, "geometry": { "type": "Point", "coordinates": [ 41.364286253633622, 56.854344908772475 ] } },
{ "type": "Feature", "properties": { "name": "Kineshma", "ne_id":  "1159128573" }, "geometry": { "type": "Point", "coordinates": [ 42.129975950902349, 57.469966246665592 ] } },
{ "type": "Feature", "properties": { "name": "Balakhna", "ne_id":  "1159128579" }, "geometry": { "type": "Point", "coordinates": [ 43.594382689189445, 56.494341043211193 ] } },
{ "type": "Feature", "properties": { "name": "Arzamas", "ne_id":  "1159128587" }, "geometry": { "type": "Point", "coordinates": [ 43.800003213278899, 55.399989236566228 ] } },
{ "type": "Feature", "properties": { "name": "Rzhev", "ne_id":  "1159128593" }, "geometry": { "type": "Point", "coordinates": [ 34.327454792016965, 56.257404601152928 ] } },
{ "type": "Feature", "properties": { "name": "Vyshnniy Volochek", "ne_id":  "1159128599" }, "geometry": { "type": "Point", "coordinates": [ 34.56309932326792, 57.583034280520224 ] } },
{ "type": "Feature", "properties": { "name": "Uglich", "ne_id":  "1159128609" }, "geometry": { "type": "Point", "coordinates": [ 38.330001178751786, 57.524355691652829 ] } },
{ "type": "Feature", "properties": { "name": "Yelets", "ne_id":  "1159128615" }, "geometry": { "type": "Point", "coordinates": [ 38.50001664099193, 52.580006326398575 ] } },
{ "type": "Feature", "properties": { "name": "Orekhovo-Zuevo", "ne_id":  "1159128623" }, "geometry": { "type": "Point", "coordinates": [ 38.979987344118911, 55.820015278234564 ] } },
{ "type": "Feature", "properties": { "name": "Klin", "ne_id":  "1159128629" }, "geometry": { "type": "Point", "coordinates": [ 36.698731240594213, 56.343058287676683 ] } },
{ "type": "Feature", "properties": { "name": "Sergiyev Posad", "ne_id":  "1159128635" }, "geometry": { "type": "Point", "coordinates": [ 38.170010944376031, 56.330009988522988 ] } },
{ "type": "Feature", "properties": { "name": "Kolomna", "ne_id":  "1159128643" }, "geometry": { "type": "Point", "coordinates": [ 38.78496048864929, 55.079982929598714 ] } },
{ "type": "Feature", "properties": { "name": "Bataysk", "ne_id":  "1159128649" }, "geometry": { "type": "Point", "coordinates": [ 39.744850218470958, 47.136824360231117 ] } },
{ "type": "Feature", "properties": { "name": "Taganrog", "ne_id":  "1159128655" }, "geometry": { "type": "Point", "coordinates": [ 38.919991006228031, 47.229996967653335 ] } },
{ "type": "Feature", "properties": { "name": "Novocherkassk", "ne_id":  "1159128663" }, "geometry": { "type": "Point", "coordinates": [ 40.080023558315986, 47.419959532758241 ] } },
{ "type": "Feature", "properties": { "name": "Kamensk Shakhtinskiy", "ne_id":  "1159128669" }, "geometry": { "type": "Point", "coordinates": [ 40.2517960192543, 48.331764342332235 ] } },
{ "type": "Feature", "properties": { "name": "Novoshakhtinsk", "ne_id":  "1159128677" }, "geometry": { "type": "Point", "coordinates": [ 39.919981647508166, 47.769989846887313 ] } },
{ "type": "Feature", "properties": { "name": "Aleksin", "ne_id":  "1159128685" }, "geometry": { "type": "Point", "coordinates": [ 37.094366006220753, 54.51433270173186 ] } },
{ "type": "Feature", "properties": { "name": "Novomoskovsk", "ne_id":  "1159128687" }, "geometry": { "type": "Point", "coordinates": [ 38.219982054402294, 54.090017516183309 ] } },
{ "type": "Feature", "properties": { "name": "Shchekino", "ne_id":  "1159128699" }, "geometry": { "type": "Point", "coordinates": [ 37.514288695024447, 54.014337381091991 ] } },
{ "type": "Feature", "properties": { "name": "Nikolayevsk", "ne_id":  "1159128705" }, "geometry": { "type": "Point", "coordinates": [ 45.426105508207229, 50.016105976453446 ] } },
{ "type": "Feature", "properties": { "name": "Shebekino", "ne_id":  "1159128713" }, "geometry": { "type": "Point", "coordinates": [ 36.89437821325123, 50.414350401910724 ] } },
{ "type": "Feature", "properties": { "name": "Gubkin", "ne_id":  "1159128719" }, "geometry": { "type": "Point", "coordinates": [ 37.384322467810534, 51.274349588112273 ] } },
{ "type": "Feature", "properties": { "name": "Apsheronsk", "ne_id":  "1159128725" }, "geometry": { "type": "Point", "coordinates": [ 39.728727171595949, 44.468718484569365 ] } },
{ "type": "Feature", "properties": { "name": "Kropotkin", "ne_id":  "1159128733" }, "geometry": { "type": "Point", "coordinates": [ 40.582111774463954, 45.447082538935319 ] } },
{ "type": "Feature", "properties": { "name": "Ruzayevka", "ne_id":  "1159128739" }, "geometry": { "type": "Point", "coordinates": [ 44.924379027085365, 54.064334329334258 ] } },
{ "type": "Feature", "properties": { "name": "Kirsanov", "ne_id":  "1159128745" }, "geometry": { "type": "Point", "coordinates": [ 42.717433633196492, 52.657391783755713 ] } },
{ "type": "Feature", "properties": { "name": "Michurinsk", "ne_id":  "1159128753" }, "geometry": { "type": "Point", "coordinates": [ 40.49999792355203, 52.899986795149914 ] } },
{ "type": "Feature", "properties": { "name": "Borisoglebsk", "ne_id":  "1159128759" }, "geometry": { "type": "Point", "coordinates": [ 42.088738157933506, 51.368710753477217 ] } },
{ "type": "Feature", "properties": { "name": "Oktyabrskiy", "ne_id":  "1159128763" }, "geometry": { "type": "Point", "coordinates": [ 53.459982054463239, 54.459969094960798 ] } },
{ "type": "Feature", "properties": { "name": "Plast", "ne_id":  "1159128773" }, "geometry": { "type": "Point", "coordinates": [ 60.808525755664618, 54.368501809804343 ] } },
{ "type": "Feature", "properties": { "name": "Bakal", "ne_id":  "1159128779" }, "geometry": { "type": "Point", "coordinates": [ 58.795883747192988, 54.94588258780135 ] } },
{ "type": "Feature", "properties": { "name": "Verkhniy Ufaley", "ne_id":  "1159128785" }, "geometry": { "type": "Point", "coordinates": [ 60.231300006964375, 56.066279316321527 ] } },
{ "type": "Feature", "properties": { "name": "Kirovo-Chepetsk", "ne_id":  "1159128797" }, "geometry": { "type": "Point", "coordinates": [ 50.044376585699752, 58.554370340094351 ] } },
{ "type": "Feature", "properties": { "name": "Krasnoturinsk", "ne_id":  "1159128805" }, "geometry": { "type": "Point", "coordinates": [ 60.484772907355932, 59.794785582612349 ] } },
{ "type": "Feature", "properties": { "name": "Asbest", "ne_id":  "1159128811" }, "geometry": { "type": "Point", "coordinates": [ 61.458046833141225, 57.023042621989305 ] } },
{ "type": "Feature", "properties": { "name": "Alapayevsk", "ne_id":  "1159128817" }, "geometry": { "type": "Point", "coordinates": [ 61.691520954235841, 57.846506570560337 ] } },
{ "type": "Feature", "properties": { "name": "Krasnouralsk", "ne_id":  "1159128825" }, "geometry": { "type": "Point", "coordinates": [ 60.051517699020962, 58.351514505132684 ] } },
{ "type": "Feature", "properties": { "name": "Severouralsk", "ne_id":  "1159128833" }, "geometry": { "type": "Point", "coordinates": [ 59.961549030400818, 60.156520608655569 ] } },
{ "type": "Feature", "properties": { "name": "Novotroitsk", "ne_id":  "1159128839" }, "geometry": { "type": "Point", "coordinates": [ 58.330020710081726, 51.200013040260387 ] } },
{ "type": "Feature", "properties": { "name": "Buguruslan", "ne_id":  "1159128849" }, "geometry": { "type": "Point", "coordinates": [ 52.433016315526913, 53.663015156155609 ] } },
{ "type": "Feature", "properties": { "name": "Chapayevsk", "ne_id":  "1159128853" }, "geometry": { "type": "Point", "coordinates": [ 49.724344440516006, 52.974323343001743 ] } },
{ "type": "Feature", "properties": { "name": "Syzran", "ne_id":  "1159128861" }, "geometry": { "type": "Point", "coordinates": [ 48.479975950927837, 53.16999615387499 ] } },
{ "type": "Feature", "properties": { "name": "Novokuybishevsk", "ne_id":  "1159128869" }, "geometry": { "type": "Point", "coordinates": [ 49.919939736740844, 53.119999205632496 ] } },
{ "type": "Feature", "properties": { "name": "Naberezhnyye Chelny", "ne_id":  "1159128877" }, "geometry": { "type": "Point", "coordinates": [ 52.319948281672282, 55.699996764236687 ] } },
{ "type": "Feature", "properties": { "name": "Zelenodolsk", "ne_id":  "1159128883" }, "geometry": { "type": "Point", "coordinates": [ 48.65500402710029, 55.840556660070547 ] } },
{ "type": "Feature", "properties": { "name": "Leninogorsk", "ne_id":  "1159128887" }, "geometry": { "type": "Point", "coordinates": [ 52.448725950943583, 54.598694477448475 ] } },
{ "type": "Feature", "properties": { "name": "Bugulma", "ne_id":  "1159128893" }, "geometry": { "type": "Point", "coordinates": [ 52.794286253679445, 54.554330260325742 ] } },
{ "type": "Feature", "properties": { "name": "Tetovo", "ne_id":  "1159129473" }, "geometry": { "type": "Point", "coordinates": [ 20.970078896781274, 42.009230366069971 ] } },
{ "type": "Feature", "properties": { "name": "Saida", "ne_id":  "1159129477" }, "geometry": { "type": "Point", "coordinates": [ 35.368786579130528, 33.563027566556968 ] } },
{ "type": "Feature", "properties": { "name": "Olsztyn", "ne_id":  "1159129483" }, "geometry": { "type": "Point", "coordinates": [ 20.480031289357385, 53.800035216377523 ] } },
{ "type": "Feature", "properties": { "name": "Elbląg", "ne_id":  "1159129491" }, "geometry": { "type": "Point", "coordinates": [ 19.402681028936456, 54.189959736235892 ] } },
{ "type": "Feature", "properties": { "name": "Inowrocław", "ne_id":  "1159129497" }, "geometry": { "type": "Point", "coordinates": [ 18.249986530233912, 52.779942442935862 ] } },
{ "type": "Feature", "properties": { "name": "Bytom", "ne_id":  "1159129505" }, "geometry": { "type": "Point", "coordinates": [ 18.909997923465767, 50.350039081923626 ] } },
{ "type": "Feature", "properties": { "name": "Opole", "ne_id":  "1159129511" }, "geometry": { "type": "Point", "coordinates": [ 17.931349648722289, 50.684979877823309 ] } },
{ "type": "Feature", "properties": { "name": "Maqat", "ne_id":  "1159129517" }, "geometry": { "type": "Point", "coordinates": [ 53.326501829853385, 47.648240172407611 ] } },
{ "type": "Feature", "properties": { "name": "Solikamsk", "ne_id":  "1159129525" }, "geometry": { "type": "Point", "coordinates": [ 56.749962116325491, 59.669986998627508 ] } },
{ "type": "Feature", "properties": { "name": "Kizel", "ne_id":  "1159129531" }, "geometry": { "type": "Point", "coordinates": [ 57.634300902136374, 59.064365050382946 ] } },
{ "type": "Feature", "properties": { "name": "Shannon", "ne_id":  "1159129681" }, "geometry": { "type": "Point", "coordinates": [ -8.864146567205296, 52.703848896386148 ] } },
{ "type": "Feature", "properties": { "name": "Waterford", "ne_id":  "1159129689" }, "geometry": { "type": "Point", "coordinates": [ -7.111927939268526, 52.258294697165582 ] } },
{ "type": "Feature", "properties": { "name": "Tralee", "ne_id":  "1159129693" }, "geometry": { "type": "Point", "coordinates": [ -9.716652670724272, 52.266692117412902 ] } },
{ "type": "Feature", "properties": { "name": "Donegal", "ne_id":  "1159129697" }, "geometry": { "type": "Point", "coordinates": [ -8.116672812319507, 54.650009174714228 ] } },
{ "type": "Feature", "properties": { "name": "Modena", "ne_id":  "1159129703" }, "geometry": { "type": "Point", "coordinates": [ 10.919994668225399, 44.650025247265376 ] } },
{ "type": "Feature", "properties": { "name": "Crotone", "ne_id":  "1159129707" }, "geometry": { "type": "Point", "coordinates": [ 17.123336953406579, 39.083336607920216 ] } },
{ "type": "Feature", "properties": { "name": "Vibo Valentia", "ne_id":  "1159129711" }, "geometry": { "type": "Point", "coordinates": [ 16.100040241162844, 38.666592019702421 ] } },
{ "type": "Feature", "properties": { "name": "Reggio di Calabria", "ne_id":  "1159129715" }, "geometry": { "type": "Point", "coordinates": [ 15.641360228140172, 38.114997781418879 ] } },
{ "type": "Feature", "properties": { "name": "Caserta", "ne_id":  "1159129721" }, "geometry": { "type": "Point", "coordinates": [ 14.337357135686887, 41.059960143084368 ] } },
{ "type": "Feature", "properties": { "name": "Barletta", "ne_id":  "1159129725" }, "geometry": { "type": "Point", "coordinates": [ 16.270004026970753, 41.319995950377063 ] } },
{ "type": "Feature", "properties": { "name": "Ragusa", "ne_id":  "1159129729" }, "geometry": { "type": "Point", "coordinates": [ 14.729994668240693, 36.930031350750085 ] } },
{ "type": "Feature", "properties": { "name": "Irbid", "ne_id":  "1159129733" }, "geometry": { "type": "Point", "coordinates": [ 35.849997516632413, 32.549988626123309 ] } },
{ "type": "Feature", "properties": { "name": "As Salt", "ne_id":  "1159129739" }, "geometry": { "type": "Point", "coordinates": [ 35.72721431350692, 32.039192931134266 ] } },
{ "type": "Feature", "properties": { "name": "Az Zarqa", "ne_id":  "1159129743" }, "geometry": { "type": "Point", "coordinates": [ 36.100008096060549, 32.06999208478021 ] } },
{ "type": "Feature", "properties": { "name": "Asti", "ne_id":  "1159129747" }, "geometry": { "type": "Point", "coordinates": [ 8.209979205975003, 44.929982319206658 ] } },
{ "type": "Feature", "properties": { "name": "Novara", "ne_id":  "1159129759" }, "geometry": { "type": "Point", "coordinates": [ 8.619980019778723, 45.450002257359699 ] } },
{ "type": "Feature", "properties": { "name": "Como", "ne_id":  "1159129763" }, "geometry": { "type": "Point", "coordinates": [ 9.080003620041055, 45.810006122921095 ] } },
{ "type": "Feature", "properties": { "name": "Udine", "ne_id":  "1159129767" }, "geometry": { "type": "Point", "coordinates": [ 13.240008095969017, 46.070016091997616 ] } },
{ "type": "Feature", "properties": { "name": "Treviso", "ne_id":  "1159129771" }, "geometry": { "type": "Point", "coordinates": [ 12.240017454689053, 45.670014667842281 ] } },
{ "type": "Feature", "properties": { "name": "Annecy", "ne_id":  "1159129803" }, "geometry": { "type": "Point", "coordinates": [ 6.116670286695864, 45.899974791541126 ] } },
{ "type": "Feature", "properties": { "name": "Roanne", "ne_id":  "1159129807" }, "geometry": { "type": "Point", "coordinates": [ 4.066666217677096, 46.033325825070392 ] } },
{ "type": "Feature", "properties": { "name": "Bielefeld", "ne_id":  "1159129993" }, "geometry": { "type": "Point", "coordinates": [ 8.530011351158521, 52.029988219300037 ] } },
{ "type": "Feature", "properties": { "name": "Dortmund", "ne_id":  "1159129997" }, "geometry": { "type": "Point", "coordinates": [ 7.450025592690793, 51.529967060443937 ] } },
{ "type": "Feature", "properties": { "name": "Duisburg", "ne_id":  "1159130001" }, "geometry": { "type": "Point", "coordinates": [ 6.750016640865056, 51.429973163959176 ] } },
{ "type": "Feature", "properties": { "name": "Wuppertal", "ne_id":  "1159130005" }, "geometry": { "type": "Point", "coordinates": [ 7.169991006100929, 51.250009988502654 ] } },
{ "type": "Feature", "properties": { "name": "Essen", "ne_id":  "1159130011" }, "geometry": { "type": "Point", "coordinates": [ 7.016615355058889, 51.449997781472348 ] } },
{ "type": "Feature", "properties": { "name": "Karlsruhe", "ne_id":  "1159130015" }, "geometry": { "type": "Point", "coordinates": [ 8.399993447512259, 48.999992288298472 ] } },
{ "type": "Feature", "properties": { "name": "Heidelberg", "ne_id":  "1159130019" }, "geometry": { "type": "Point", "coordinates": [ 8.699975136966486, 49.41999249175052 ] } },
{ "type": "Feature", "properties": { "name": "Kassel", "ne_id":  "1159130023" }, "geometry": { "type": "Point", "coordinates": [ 9.500029661709334, 51.300006936745149 ] } },
{ "type": "Feature", "properties": { "name": "Oldenburg", "ne_id":  "1159130027" }, "geometry": { "type": "Point", "coordinates": [ 8.220004433839563, 53.129998595281108 ] } },
{ "type": "Feature", "properties": { "name": "Emden", "ne_id":  "1159130033" }, "geometry": { "type": "Point", "coordinates": [ 7.216654824460534, 53.366676655177798 ] } },
{ "type": "Feature", "properties": { "name": "Braunschweig", "ne_id":  "1159130037" }, "geometry": { "type": "Point", "coordinates": [ 10.500020302989469, 52.249974791566615 ] } },
{ "type": "Feature", "properties": { "name": "Erfurt", "ne_id":  "1159130041" }, "geometry": { "type": "Point", "coordinates": [ 11.029962116142485, 50.970052916561428 ] } },
{ "type": "Feature", "properties": { "name": "Karlovac", "ne_id":  "1159130047" }, "geometry": { "type": "Point", "coordinates": [ 15.547774209259558, 45.487209288609961 ] } },
{ "type": "Feature", "properties": { "name": "Rijeka", "ne_id":  "1159130051" }, "geometry": { "type": "Point", "coordinates": [ 14.450011758083406, 45.329983743361822 ] } },
{ "type": "Feature", "properties": { "name": "Coburg", "ne_id":  "1159130055" }, "geometry": { "type": "Point", "coordinates": [ 10.966606810152598, 50.266607481988444 ] } },
{ "type": "Feature", "properties": { "name": "Augsburg", "ne_id":  "1159130059" }, "geometry": { "type": "Point", "coordinates": [ 10.899995888928458, 48.350006122931177 ] } },
{ "type": "Feature", "properties": { "name": "Fürth", "ne_id":  "1159130065" }, "geometry": { "type": "Point", "coordinates": [ 10.999989785413163, 49.470015278209189 ] } },
{ "type": "Feature", "properties": { "name": "České Budějovice", "ne_id":  "1159130069" }, "geometry": { "type": "Point", "coordinates": [ 14.460036985947966, 48.980019347217535 ] } },
{ "type": "Feature", "properties": { "name": "Liberec", "ne_id":  "1159130073" }, "geometry": { "type": "Point", "coordinates": [ 15.079999144153533, 50.799959939672704 ] } },
{ "type": "Feature", "properties": { "name": "Chemnitz", "ne_id":  "1159130077" }, "geometry": { "type": "Point", "coordinates": [ 12.919975950785499, 50.829983946834375 ] } },
{ "type": "Feature", "properties": { "name": "Slavonski Brod", "ne_id":  "1159130083" }, "geometry": { "type": "Point", "coordinates": [ 18.015582233357918, 45.160278339715376 ] } },
{ "type": "Feature", "properties": { "name": "Olomouc", "ne_id":  "1159130087" }, "geometry": { "type": "Point", "coordinates": [ 17.249995888953777, 49.630031350800948 ] } },
{ "type": "Feature", "properties": { "name": "Kohtla-Järve", "ne_id":  "1159130121" }, "geometry": { "type": "Point", "coordinates": [ 27.28333695344719, 59.399977639902431 ] } },
{ "type": "Feature", "properties": { "name": "St.-Brieuc", "ne_id":  "1159130481" }, "geometry": { "type": "Point", "coordinates": [ -2.783303264772087, 48.516662617072484 ] } },
{ "type": "Feature", "properties": { "name": "Poitier", "ne_id":  "1159130485" }, "geometry": { "type": "Point", "coordinates": [ 0.333276528534554, 46.583292255736581 ] } },
{ "type": "Feature", "properties": { "name": "Angers", "ne_id":  "1159130495" }, "geometry": { "type": "Point", "coordinates": [ -0.530029949333425, 47.4800075470813 ] } },
{ "type": "Feature", "properties": { "name": "Biarritz", "ne_id":  "1159130499" }, "geometry": { "type": "Point", "coordinates": [ -1.56159489074372, 43.47327536933102 ] } },
{ "type": "Feature", "properties": { "name": "Aix-en-Provence", "ne_id":  "1159130503" }, "geometry": { "type": "Point", "coordinates": [ 5.449992633698287, 43.519990864122803 ] } },
{ "type": "Feature", "properties": { "name": "Perpignan", "ne_id":  "1159130507" }, "geometry": { "type": "Point", "coordinates": [ 2.899967405823475, 42.699989236515364 ] } },
{ "type": "Feature", "properties": { "name": "Tarbes", "ne_id":  "1159130513" }, "geometry": { "type": "Point", "coordinates": [ 0.083343463755, 43.233290017767445 ] } },
{ "type": "Feature", "properties": { "name": "Clermont-Ferrand", "ne_id":  "1159130517" }, "geometry": { "type": "Point", "coordinates": [ 3.080008095928406, 45.779982115759424 ] } },
{ "type": "Feature", "properties": { "name": "Melun", "ne_id":  "1159130521" }, "geometry": { "type": "Point", "coordinates": [ 2.666648314025622, 48.53330242827036 ] } },
{ "type": "Feature", "properties": { "name": "Arras", "ne_id":  "1159130525" }, "geometry": { "type": "Point", "coordinates": [ 2.783333698140837, 50.283324807834731 ] } },
{ "type": "Feature", "properties": { "name": "Besançon", "ne_id":  "1159130531" }, "geometry": { "type": "Point", "coordinates": [ 6.030008909742378, 47.229996967653335 ] } },
{ "type": "Feature", "properties": { "name": "Piraeus", "ne_id":  "1159130685" }, "geometry": { "type": "Point", "coordinates": [ 23.699989785464027, 37.950020771327161 ] } },
{ "type": "Feature", "properties": { "name": "Volos", "ne_id":  "1159130689" }, "geometry": { "type": "Point", "coordinates": [ 22.950009723612027, 39.369959939627051 ] } },
{ "type": "Feature", "properties": { "name": "Hania", "ne_id":  "1159130695" }, "geometry": { "type": "Point", "coordinates": [ 24.015577757470567, 35.512210916174183 ] } },
{ "type": "Feature", "properties": { "name": "Kavala", "ne_id":  "1159130699" }, "geometry": { "type": "Point", "coordinates": [ 24.401760361969536, 40.941211132008618 ] } },
{ "type": "Feature", "properties": { "name": "Alexandroupoli", "ne_id":  "1159130703" }, "geometry": { "type": "Point", "coordinates": [ 25.874409781885618, 40.848619365381012 ] } },
{ "type": "Feature", "properties": { "name": "Kutaisi", "ne_id":  "1159130705" }, "geometry": { "type": "Point", "coordinates": [ 42.729991006243324, 42.249990864117763 ] } },
{ "type": "Feature", "properties": { "name": "Tskhinvali", "ne_id":  "1159130711" }, "geometry": { "type": "Point", "coordinates": [ 43.975031289451522, 42.232498391786862 ] } },
{ "type": "Feature", "properties": { "name": "Beer Sheva", "ne_id":  "1159130717" }, "geometry": { "type": "Point", "coordinates": [ 34.830008096055508, 31.250016295388946 ] } },
{ "type": "Feature", "properties": { "name": "Savonlinna", "ne_id":  "1159130721" }, "geometry": { "type": "Point", "coordinates": [ 28.88334265006813, 61.866622944274411 ] } },
{ "type": "Feature", "properties": { "name": "Pori", "ne_id":  "1159130725" }, "geometry": { "type": "Point", "coordinates": [ 21.77493932972726, 61.478894672788385 ] } },
{ "type": "Feature", "properties": { "name": "Marv Dasht", "ne_id":  "1159130735" }, "geometry": { "type": "Point", "coordinates": [ 52.821468057064976, 29.801448383599279 ] } },
{ "type": "Feature", "properties": { "name": "Shahrud", "ne_id":  "1159130739" }, "geometry": { "type": "Point", "coordinates": [ 54.962887734807794, 36.42287884423763 ] } },
{ "type": "Feature", "properties": { "name": "Varamin", "ne_id":  "1159130743" }, "geometry": { "type": "Point", "coordinates": [ 51.646604368909209, 35.316589781733342 ] } },
{ "type": "Feature", "properties": { "name": "Masjed Soleyman", "ne_id":  "1159130749" }, "geometry": { "type": "Point", "coordinates": [ 49.299925902102871, 31.979997577943834 ] } },
{ "type": "Feature", "properties": { "name": "Borujerd", "ne_id":  "1159130753" }, "geometry": { "type": "Point", "coordinates": [ 48.800008096111412, 33.91995668439688 ] } },
{ "type": "Feature", "properties": { "name": "Az Aubayr", "ne_id":  "1159130757" }, "geometry": { "type": "Point", "coordinates": [ 47.707981728919549, 30.389164448054657 ] } },
{ "type": "Feature", "properties": { "name": "Ad Diwaniyah", "ne_id":  "1159130761" }, "geometry": { "type": "Point", "coordinates": [ 44.923965615627026, 31.988937600730424 ] } },
{ "type": "Feature", "properties": { "name": "Ash Shatrah", "ne_id":  "1159130765" }, "geometry": { "type": "Point", "coordinates": [ 46.177222451569605, 31.417525450662879 ] } },
{ "type": "Feature", "properties": { "name": "Malayer", "ne_id":  "1159130767" }, "geometry": { "type": "Point", "coordinates": [ 48.849979206137505, 34.319983946768218 ] } },
{ "type": "Feature", "properties": { "name": "Zanjan", "ne_id":  "1159130771" }, "geometry": { "type": "Point", "coordinates": [ 48.500026406657014, 36.670021381673564 ] } },
{ "type": "Feature", "properties": { "name": "Urmia", "ne_id":  "1159130775" }, "geometry": { "type": "Point", "coordinates": [ 44.9999816475285, 37.529994729658711 ] } },
{ "type": "Feature", "properties": { "name": "Ahar", "ne_id":  "1159130777" }, "geometry": { "type": "Point", "coordinates": [ 47.062904824619977, 38.482908141120959 ] } },
{ "type": "Feature", "properties": { "name": "Sanandaj", "ne_id":  "1159130783" }, "geometry": { "type": "Point", "coordinates": [ 47.02001338581772, 35.300001646967644 ] } },
{ "type": "Feature", "properties": { "name": "Mandali", "ne_id":  "1159130787" }, "geometry": { "type": "Point", "coordinates": [ 45.54635656615045, 33.743610859200942 ] } },
{ "type": "Feature", "properties": { "name": "Neyshabur", "ne_id":  "1159130793" }, "geometry": { "type": "Point", "coordinates": [ 58.82001664107338, 36.220023009275963 ] } },
{ "type": "Feature", "properties": { "name": "Bojnurd", "ne_id":  "1159130795" }, "geometry": { "type": "Point", "coordinates": [ 57.320004840936974, 37.469998391767888 ] } },
{ "type": "Feature", "properties": { "name": "Sirjan", "ne_id":  "1159130803" }, "geometry": { "type": "Point", "coordinates": [ 55.730024372180594, 29.469969908662904 ] } },
{ "type": "Feature", "properties": { "name": "Viborg", "ne_id":  "1159130855" }, "geometry": { "type": "Point", "coordinates": [ 9.399984088792223, 56.433337014890583 ] } },
{ "type": "Feature", "properties": { "name": "Roskilde", "ne_id":  "1159130859" }, "geometry": { "type": "Point", "coordinates": [ 12.083334511980127, 55.649973977778188 ] } },
{ "type": "Feature", "properties": { "name": "Ar Ramadi", "ne_id":  "1159130863" }, "geometry": { "type": "Point", "coordinates": [ 43.299982054422628, 33.42001304018919 ] } },
{ "type": "Feature", "properties": { "name": "Al Musayyib", "ne_id":  "1159130867" }, "geometry": { "type": "Point", "coordinates": [ 44.289999144270382, 32.778631000798612 ] } },
{ "type": "Feature", "properties": { "name": "Subotica", "ne_id":  "1159130873" }, "geometry": { "type": "Point", "coordinates": [ 19.680028441046943, 46.070016091997616 ] } },
{ "type": "Feature", "properties": { "name": "Kragujevac", "ne_id":  "1159131621" }, "geometry": { "type": "Point", "coordinates": [ 20.920004433890426, 44.019960346546668 ] } },
{ "type": "Feature", "properties": { "name": "Zrenjanin", "ne_id":  "1159131625" }, "geometry": { "type": "Point", "coordinates": [ 20.399467731414347, 45.3786371043646 ] } },
{ "type": "Feature", "properties": { "name": "Vlorë", "ne_id":  "1159132141" }, "geometry": { "type": "Point", "coordinates": [ 19.498230752244183, 40.477360045425655 ] } },
{ "type": "Feature", "properties": { "name": "Elbasan", "ne_id":  "1159132145" }, "geometry": { "type": "Point", "coordinates": [ 20.083828082975629, 41.12150677394402 ] } },
{ "type": "Feature", "properties": { "name": "Gyumri", "ne_id":  "1159132151" }, "geometry": { "type": "Point", "coordinates": [ 43.847493854555125, 40.789434020036367 ] } },
{ "type": "Feature", "properties": { "name": "Gent", "ne_id":  "1159132155" }, "geometry": { "type": "Point", "coordinates": [ 3.700021930566322, 51.029997578020073 ] } },
{ "type": "Feature", "properties": { "name": "Vanadzor", "ne_id":  "1159132159" }, "geometry": { "type": "Point", "coordinates": [ 44.488281614974255, 40.812765929216198 ] } },
{ "type": "Feature", "properties": { "name": "Ganca", "ne_id":  "1159132163" }, "geometry": { "type": "Point", "coordinates": [ 46.35002844115354, 40.684995950374457 ] } },
{ "type": "Feature", "properties": { "name": "Yevlax", "ne_id":  "1159132169" }, "geometry": { "type": "Point", "coordinates": [ 47.150031289464152, 40.617196471207535 ] } },
{ "type": "Feature", "properties": { "name": "Sumqayt", "ne_id":  "1159132173" }, "geometry": { "type": "Point", "coordinates": [ 49.629983275151176, 40.580015278173619 ] } },
{ "type": "Feature", "properties": { "name": "Sliven", "ne_id":  "1159132273" }, "geometry": { "type": "Point", "coordinates": [ 26.330010130526659, 42.679370340030971 ] } },
{ "type": "Feature", "properties": { "name": "Plovdiv", "ne_id":  "1159132279" }, "geometry": { "type": "Point", "coordinates": [ 24.753982298489177, 42.153976052919347 ] } },
{ "type": "Feature", "properties": { "name": "Pernik", "ne_id":  "1159132283" }, "geometry": { "type": "Point", "coordinates": [ 23.022718463846843, 42.609994729679045 ] } },
{ "type": "Feature", "properties": { "name": "Vratsa", "ne_id":  "1159132287" }, "geometry": { "type": "Point", "coordinates": [ 23.562530475567655, 43.209983946803845 ] } },
{ "type": "Feature", "properties": { "name": "Shumen", "ne_id":  "1159132291" }, "geometry": { "type": "Point", "coordinates": [ 26.929353392247833, 43.270006122910843 ] } },
{ "type": "Feature", "properties": { "name": "Wiener Neustadt", "ne_id":  "1159132297" }, "geometry": { "type": "Point", "coordinates": [ 16.249953571241463, 47.815981871627059 ] } },
{ "type": "Feature", "properties": { "name": "Baranavichy", "ne_id":  "1159132301" }, "geometry": { "type": "Point", "coordinates": [ 26.013440306306734, 53.136845722559769 ] } },
{ "type": "Feature", "properties": { "name": "Polatsk", "ne_id":  "1159132305" }, "geometry": { "type": "Point", "coordinates": [ 28.785984251630225, 55.489389464431156 ] } },
{ "type": "Feature", "properties": { "name": "Maladzyechna", "ne_id":  "1159132309" }, "geometry": { "type": "Point", "coordinates": [ 26.865326292638258, 54.318789081939428 ] } },
{ "type": "Feature", "properties": { "name": "Zenica", "ne_id":  "1159132327" }, "geometry": { "type": "Point", "coordinates": [ 17.919980833618013, 44.219973977732366 ] } },
{ "type": "Feature", "properties": { "name": "Liège", "ne_id":  "1159132333" }, "geometry": { "type": "Point", "coordinates": [ 5.580010537344776, 50.629996153864909 ] } },
{ "type": "Feature", "properties": { "name": "Al Khalil", "ne_id":  "1159132349" }, "geometry": { "type": "Point", "coordinates": [ 35.095573281603379, 31.540592874166066 ] } },
{ "type": "Feature", "properties": { "name": "Ammochostos", "ne_id":  "1159132353" }, "geometry": { "type": "Point", "coordinates": [ 33.950010130557018, 35.1250252472272 ] } },
{ "type": "Feature", "properties": { "name": "Fort William", "ne_id":  "1159132367" }, "geometry": { "type": "Point", "coordinates": [ -5.112075805664062, 56.81647794622836 ] } },
{ "type": "Feature", "properties": { "name": "Koszalin", "ne_id":  "1159132371" }, "geometry": { "type": "Point", "coordinates": [ 16.183333299999958, 54.200000000000102 ] } },
{ "type": "Feature", "properties": { "name": "Almería", "ne_id":  "1159133773" }, "geometry": { "type": "Point", "coordinates": [ -2.429991497192589, 36.830347512859078 ] } },
{ "type": "Feature", "properties": { "name": "Málaga", "ne_id":  "1159133777" }, "geometry": { "type": "Point", "coordinates": [ -4.419999228320307, 36.720405903158166 ] } },
{ "type": "Feature", "properties": { "name": "Jaén", "ne_id":  "1159133781" }, "geometry": { "type": "Point", "coordinates": [ -3.799985393682448, 37.770393492680569 ] } },
{ "type": "Feature", "properties": { "name": "Huelva", "ne_id":  "1159133785" }, "geometry": { "type": "Point", "coordinates": [ -6.929949382952714, 37.250373554527357 ] } },
{ "type": "Feature", "properties": { "name": "Albacete", "ne_id":  "1159133791" }, "geometry": { "type": "Point", "coordinates": [ -1.86999983866167, 39.000344257659322 ] } },
{ "type": "Feature", "properties": { "name": "Toledo", "ne_id":  "1159133795" }, "geometry": { "type": "Point", "coordinates": [ -4.016716350714489, 39.86703554184254 ] } },
{ "type": "Feature", "properties": { "name": "Guadalajara", "ne_id":  "1159133799" }, "geometry": { "type": "Point", "coordinates": [ -3.166587363080964, 40.633707091324823 ] } },
{ "type": "Feature", "properties": { "name": "Santander", "ne_id":  "1159133803" }, "geometry": { "type": "Point", "coordinates": [ -3.799985393682448, 43.380464496934849 ] } },
{ "type": "Feature", "properties": { "name": "Salamanca", "ne_id":  "1159133809" }, "geometry": { "type": "Point", "coordinates": [ -5.670000449028464, 40.970404885922505 ] } },
{ "type": "Feature", "properties": { "name": "Burgos", "ne_id":  "1159133813" }, "geometry": { "type": "Point", "coordinates": [ -3.679966879684571, 42.350398172060807 ] } },
{ "type": "Feature", "properties": { "name": "Ben Gardane", "ne_id":  "1159133831" }, "geometry": { "type": "Point", "coordinates": [ 11.220028034111976, 33.140391865057893 ] } },
{ "type": "Feature", "properties": { "name": "Zarzis", "ne_id":  "1159133835" }, "geometry": { "type": "Point", "coordinates": [ 11.099983681898095, 33.510395120267674 ] } },
{ "type": "Feature", "properties": { "name": "Dehibat", "ne_id":  "1159133839" }, "geometry": { "type": "Point", "coordinates": [ 10.700008095958935, 32.017049579896991 ] } },
{ "type": "Feature", "properties": { "name": "Tarragona", "ne_id":  "1159133845" }, "geometry": { "type": "Point", "coordinates": [ 1.249990599176272, 41.120369892433473 ] } },
{ "type": "Feature", "properties": { "name": "Tozeur", "ne_id":  "1159133849" }, "geometry": { "type": "Point", "coordinates": [ 8.129984088787182, 33.930421161935953 ] } },
{ "type": "Feature", "properties": { "name": "Béja", "ne_id":  "1159133853" }, "geometry": { "type": "Point", "coordinates": [ 9.190022744390376, 36.730405292806552 ] } },
{ "type": "Feature", "properties": { "name": "Bizerte", "ne_id":  "1159133857" }, "geometry": { "type": "Point", "coordinates": [ 9.854995075122133, 37.290422789553645 ] } },
{ "type": "Feature", "properties": { "name": "Nabeul", "ne_id":  "1159133863" }, "geometry": { "type": "Point", "coordinates": [ 10.730032103120493, 36.460344257649297 ] } },
{ "type": "Feature", "properties": { "name": "El Kef", "ne_id":  "1159133869" }, "geometry": { "type": "Point", "coordinates": [ 8.714754596602006, 36.182635110512706 ] } },
{ "type": "Feature", "properties": { "name": "Qasserine", "ne_id":  "1159133873" }, "geometry": { "type": "Point", "coordinates": [ 8.829993040612919, 35.180396544428049 ] } },
{ "type": "Feature", "properties": { "name": "Gabès", "ne_id":  "1159133879" }, "geometry": { "type": "Point", "coordinates": [ 10.09999304061796, 33.900422992990627 ] } },
{ "type": "Feature", "properties": { "name": "Gafsa", "ne_id":  "1159133883" }, "geometry": { "type": "Point", "coordinates": [ 8.780021930586656, 34.420442931143668 ] } },
{ "type": "Feature", "properties": { "name": "Qairouan", "ne_id":  "1159133887" }, "geometry": { "type": "Point", "coordinates": [ 10.09999304061796, 35.680391865067918 ] } },
{ "type": "Feature", "properties": { "name": "Tartus", "ne_id":  "1159133891" }, "geometry": { "type": "Point", "coordinates": [ 35.886584052727699, 34.884634483746083 ] } },
{ "type": "Feature", "properties": { "name": "Ar Raqqah", "ne_id":  "1159133897" }, "geometry": { "type": "Point", "coordinates": [ 39.019984902712793, 35.930376606280049 ] } },
{ "type": "Feature", "properties": { "name": "Hamah", "ne_id":  "1159133901" }, "geometry": { "type": "Point", "coordinates": [ 36.729995482130846, 35.150346699050317 ] } },
{ "type": "Feature", "properties": { "name": "Tadmur", "ne_id":  "1159133905" }, "geometry": { "type": "Point", "coordinates": [ 38.283337360392181, 34.550409158357752 ] } },
{ "type": "Feature", "properties": { "name": "Abu Kamal", "ne_id":  "1159133909" }, "geometry": { "type": "Point", "coordinates": [ 40.918628701548641, 34.45041526187299 ] } },
{ "type": "Feature", "properties": { "name": "Dayr az Zawr", "ne_id":  "1159133915" }, "geometry": { "type": "Point", "coordinates": [ 40.129994668342249, 35.330387389155248 ] } },
{ "type": "Feature", "properties": { "name": "As Suwayda", "ne_id":  "1159133919" }, "geometry": { "type": "Point", "coordinates": [ 36.566594603223848, 32.700418720524851 ] } },
{ "type": "Feature", "properties": { "name": "Ad Nabk", "ne_id":  "1159133923" }, "geometry": { "type": "Point", "coordinates": [ 36.733302773797504, 34.017030862457261 ] } },
{ "type": "Feature", "properties": { "name": "Luzern", "ne_id":  "1159133953" }, "geometry": { "type": "Point", "coordinates": [ 8.280000771730386, 47.050421365438922 ] } },
{ "type": "Feature", "properties": { "name": "Lugano", "ne_id":  "1159133957" }, "geometry": { "type": "Point", "coordinates": [ 8.966677204024904, 46.000382099484341 ] } },
{ "type": "Feature", "properties": { "name": "Bollnäs", "ne_id":  "1159134095" }, "geometry": { "type": "Point", "coordinates": [ 16.366587278924271, 61.352003193295786 ] } },
{ "type": "Feature", "properties": { "name": "Gävle", "ne_id":  "1159134099" }, "geometry": { "type": "Point", "coordinates": [ 17.166641803667119, 60.666980406834739 ] } },
{ "type": "Feature", "properties": { "name": "Kalmar", "ne_id":  "1159134103" }, "geometry": { "type": "Point", "coordinates": [ 16.366587278924271, 56.667017841714539 ] } },
{ "type": "Feature", "properties": { "name": "Växjö", "ne_id":  "1159134107" }, "geometry": { "type": "Point", "coordinates": [ 14.816707721626358, 56.883697122314288 ] } },
{ "type": "Feature", "properties": { "name": "Örebro", "ne_id":  "1159134115" }, "geometry": { "type": "Point", "coordinates": [ 15.219990599232176, 59.280346699146889 ] } },
{ "type": "Feature", "properties": { "name": "Norrköping", "ne_id":  "1159134119" }, "geometry": { "type": "Point", "coordinates": [ 16.178691771111119, 58.59542726555037 ] } },
{ "type": "Feature", "properties": { "name": "Halmstad", "ne_id":  "1159134123" }, "geometry": { "type": "Point", "coordinates": [ 12.85558711614982, 56.671772073485272 ] } },
{ "type": "Feature", "properties": { "name": "Karlstad", "ne_id":  "1159134127" }, "geometry": { "type": "Point", "coordinates": [ 13.499940550397127, 59.367137267180965 ] } },
{ "type": "Feature", "properties": { "name": "Skellefteå", "ne_id":  "1159134133" }, "geometry": { "type": "Point", "coordinates": [ 20.950028441051927, 64.772078673452711 ] } },
{ "type": "Feature", "properties": { "name": "Visby", "ne_id":  "1159134137" }, "geometry": { "type": "Point", "coordinates": [ 18.30000931669241, 57.633651345950113 ] } },
{ "type": "Feature", "properties": { "name": "Dzhankoy", "ne_id":  "1159134141" }, "geometry": { "type": "Point", "coordinates": [ 34.400008502954847, 45.71704022122799 ] } },
{ "type": "Feature", "properties": { "name": "Yevpatoriya", "ne_id":  "1159134145" }, "geometry": { "type": "Point", "coordinates": [ 33.363069212585913, 45.196891091994019 ] } },
{ "type": "Feature", "properties": { "name": "Kerch", "ne_id":  "1159134151" }, "geometry": { "type": "Point", "coordinates": [ 36.488098102572508, 45.368508523635398 ] } },
{ "type": "Feature", "properties": { "name": "Simferopol", "ne_id":  "1159134155" }, "geometry": { "type": "Point", "coordinates": [ 34.098734902693138, 44.949154275586807 ] } },
{ "type": "Feature", "properties": { "name": "Kherson", "ne_id":  "1159134159" }, "geometry": { "type": "Point", "coordinates": [ 32.600664887186895, 46.63253717979012 ] } },
{ "type": "Feature", "properties": { "name": "Voznesensk", "ne_id":  "1159134163" }, "geometry": { "type": "Point", "coordinates": [ 31.333322305025831, 47.550365009646839 ] } },
{ "type": "Feature", "properties": { "name": "Nizhyn", "ne_id":  "1159134169" }, "geometry": { "type": "Point", "coordinates": [ 31.890290892267615, 51.054078795468115 ] } },
{ "type": "Feature", "properties": { "name": "Rivne", "ne_id":  "1159134173" }, "geometry": { "type": "Point", "coordinates": [ 26.25280554068263, 50.61658611968511 ] } },
{ "type": "Feature", "properties": { "name": "Chernivtsi", "ne_id":  "1159134177" }, "geometry": { "type": "Point", "coordinates": [ 25.921559609691599, 48.305306008998741 ] } },
{ "type": "Feature", "properties": { "name": "Ivano-Frankivsk", "ne_id":  "1159134181" }, "geometry": { "type": "Point", "coordinates": [ 24.709385537421269, 48.934750792529769 ] } },
{ "type": "Feature", "properties": { "name": "Ternopil", "ne_id":  "1159134187" }, "geometry": { "type": "Point", "coordinates": [ 25.582148802398592, 49.535980244029702 ] } },
{ "type": "Feature", "properties": { "name": "Lutsk", "ne_id":  "1159134191" }, "geometry": { "type": "Point", "coordinates": [ 25.333378457345589, 50.74719830230282 ] } },
{ "type": "Feature", "properties": { "name": "Kovel", "ne_id":  "1159134195" }, "geometry": { "type": "Point", "coordinates": [ 24.716620237942095, 51.217066262916603 ] } },
{ "type": "Feature", "properties": { "name": "Cherkasy", "ne_id":  "1159134199" }, "geometry": { "type": "Point", "coordinates": [ 32.07090002312782, 49.434720274953861 ] } },
{ "type": "Feature", "properties": { "name": "Kirovohrad", "ne_id":  "1159134205" }, "geometry": { "type": "Point", "coordinates": [ 32.260294147477452, 48.504053567593303 ] } },
{ "type": "Feature", "properties": { "name": "Izmayil", "ne_id":  "1159134209" }, "geometry": { "type": "Point", "coordinates": [ 28.837350625328384, 45.350344257684867 ] } },
{ "type": "Feature", "properties": { "name": "Vinnytsya", "ne_id":  "1159134213" }, "geometry": { "type": "Point", "coordinates": [ 28.481558388998792, 49.225379047739466 ] } },
{ "type": "Feature", "properties": { "name": "Korosten", "ne_id":  "1159134217" }, "geometry": { "type": "Point", "coordinates": [ 28.650023558270277, 50.950415872290591 ] } },
{ "type": "Feature", "properties": { "name": "Shostka", "ne_id":  "1159134223" }, "geometry": { "type": "Point", "coordinates": [ 33.479651243836543, 51.873408629455696 ] } },
{ "type": "Feature", "properties": { "name": "Nikopol", "ne_id":  "1159134227" }, "geometry": { "type": "Point", "coordinates": [ 34.406209674829825, 47.566591409386433 ] } },
{ "type": "Feature", "properties": { "name": "Kupyansk", "ne_id":  "1159134231" }, "geometry": { "type": "Point", "coordinates": [ 37.598056191769558, 49.721782856335153 ] } },
{ "type": "Feature", "properties": { "name": "Lysychansk", "ne_id":  "1159134235" }, "geometry": { "type": "Point", "coordinates": [ 38.42735957718952, 48.920410582568991 ] } },
{ "type": "Feature", "properties": { "name": "Luhansk", "ne_id":  "1159134241" }, "geometry": { "type": "Point", "coordinates": [ 39.33438431677655, 48.569760151252467 ] } },
{ "type": "Feature", "properties": { "name": "Poltava", "ne_id":  "1159134245" }, "geometry": { "type": "Point", "coordinates": [ 34.57028234735651, 49.574039936412646 ] } },
{ "type": "Feature", "properties": { "name": "Kremenchuk", "ne_id":  "1159134249" }, "geometry": { "type": "Point", "coordinates": [ 33.42962845737793, 49.083527241098238 ] } },
{ "type": "Feature", "properties": { "name": "Melitopol", "ne_id":  "1159134253" }, "geometry": { "type": "Point", "coordinates": [ 35.377468219755599, 46.837824522990275 ] } },
{ "type": "Feature", "properties": { "name": "Balkanabat", "ne_id":  "1159134289" }, "geometry": { "type": "Point", "coordinates": [ 54.364939736758572, 39.512380187023496 ] } },
{ "type": "Feature", "properties": { "name": "Kaka", "ne_id":  "1159134295" }, "geometry": { "type": "Point", "coordinates": [ 59.600020710086937, 37.350341612796115 ] } },
{ "type": "Feature", "properties": { "name": "Khiwa", "ne_id":  "1159134303" }, "geometry": { "type": "Point", "coordinates": [ 60.355736855923226, 41.391128559426818 ] } },
{ "type": "Feature", "properties": { "name": "Chimboy", "ne_id":  "1159134307" }, "geometry": { "type": "Point", "coordinates": [ 59.770759642379289, 42.931137918156935 ] } },
{ "type": "Feature", "properties": { "name": "Qunghirot", "ne_id":  "1159134313" }, "geometry": { "type": "Point", "coordinates": [ 58.900011758261201, 43.070405903183484 ] } },
{ "type": "Feature", "properties": { "name": "Egilsstaðir", "ne_id":  "1159134905" }, "geometry": { "type": "Point", "coordinates": [ -14.394997600756085, 65.267423115186432 ] } },
{ "type": "Feature", "properties": { "name": "Sauðárkrókur", "ne_id":  "1159134909" }, "geometry": { "type": "Point", "coordinates": [ -19.638992758654695, 65.746411966099799 ] } },
{ "type": "Feature", "properties": { "name": "Selfoss", "ne_id":  "1159134913" }, "geometry": { "type": "Point", "coordinates": [ -20.996946046420533, 63.93342185378782 ] } },
{ "type": "Feature", "properties": { "name": "Lorca", "ne_id":  "1159134917" }, "geometry": { "type": "Point", "coordinates": [ -1.698511598101049, 37.688563862146395 ] } },
{ "type": "Feature", "properties": { "name": "Cartagena", "ne_id":  "1159134923" }, "geometry": { "type": "Point", "coordinates": [ -0.980028321731083, 37.600429706872603 ] } },
{ "type": "Feature", "properties": { "name": "Oviedo", "ne_id":  "1159134927" }, "geometry": { "type": "Point", "coordinates": [ -5.829990683404048, 43.350492166205527 ] } },
{ "type": "Feature", "properties": { "name": "Santiago de Compostela", "ne_id":  "1159134933" }, "geometry": { "type": "Point", "coordinates": [ -8.5410913507327, 42.88289796861244 ] } },
{ "type": "Feature", "properties": { "name": "Badajoz", "ne_id":  "1159134937" }, "geometry": { "type": "Point", "coordinates": [ -6.969972779762827, 38.8804290965262 ] } },